AeroFx,AeroFy,AeroFz,AeroMx,AeroMy,AeroMz,AeroThrust,GenPwr,GenTq,HSS_Spd,HydroFx,HydroFy,HydroFz,HydroMx,HydroMy,HydroMz,MoorFx,MoorFy,MoorFz,MoorMx,MoorMy,MoorMz,PitchCmd,PtfmHeave,PtfmHeaveVel,PtfmPitch,PtfmPitchVel,PtfmRoll,PtfmRollVel,PtfmSurge,PtfmSurgeVel,PtfmSway,PtfmSwayVel,PtfmYaw,PtfmYawVel,RotSpeed,Time,WaveElev,WindSpeed,dof_B1E1,dof_B1F1,dof_B1F2,dof_B2E1,dof_B2F1,dof_B2F2,dof_B3E1,dof_B3F1,dof_B3F2,dof_DrTr,dof_GenAz,dof_Heave,dof_NacYaw,dof_Pitch,dof_Roll,dof_Surge,dof_Sway,dof_TwrFA1,dof_TwrFA2,dof_TwrSS1,dof_TwrSS2,dof_Yaw,env_wave_elev,env_wind_speed,gen_torque,qB1E1,qB1F1,qB1F2,qB2E1,qB2F1,qB2F2,qB3E1,qB3F1,qB3F2,qDrTr,qGeAz,qHv,qP,qR,qSg,qSw,qTFA1,qTFA2,qTSS1,qTSS2,qY,qyaw,thrust,time
-4065.6260063319733,0.0,0.0,0.0,-365906.3405698777,0.0,-4065.6260063319733,2479338.7561463322,43093.55,60.94689747964199,-662255.9385189521,0.0,-13118462.846182412,-6.146728992462158e-08,-45669366.12328332,-4.190951585769653e-08,-6.187454983592033,0.0,-1979296.783997564,0.0,5.345696542412043,0.0,0.0,0.0,0.0,0.0,0.0,0.0,0.0,0.0,0.0,0.0,0.0,0.0,0.0,0.6283185307179586,0.0,1.83,11.4,0.0,0.0,0.0,0.0,0.0,0.0,0.0,0.0,0.0,0.0,0.01884955592153876,-0.000357769905191323,0.0,-2.7440406677147172e-06,-2.8003299908069834e-21,-5.5381697049239716e-05,3.279348281903219e-20,0.001065511933036255,0.0,-0.0008078292438459039,0.0,-1.0971159731426227e-22,0.0,0.0,0.0,0.0,0.0,0.0,0.0,0.0,0.0,0.0,0.0,0.0,0.0,1.08,-0.000357769905191323,-0.0001572219490723136,-1.6044708971714878e-19,-5.5381697049239716e-05,3.279348281903219e-20,0.001065511933036255,0.0,-0.0008078292438459039,0.0,-6.286011489746046e-21,0.0,0.0,0.03
-4021.767121290091,0.0,0.0,0.0,-361959.0409161082,0.0,-4021.767121290091,2479338.7561463322,43093.55,60.94689747964199,-923017.8260347296,-1.1338077082097694e-13,-13075661.026272248,-6.891787052154541e-08,-37250129.174781196,-4.0512531995773315e-08,75.59014255588409,0.0,-1979231.775248255,0.0,-322.14064396731555,5.684341886080801e-13,0.0,-0.0009932769116264358,-0.03970350789464489,-7.515263162089825e-06,-0.00029522665126096204,-8.318811907603608e-21,-3.4236751564564727e-19,-0.0001550586537756477,-0.006262562621258832,9.741734044311472e-20,4.009252623112425e-18,-2.873817831456539e-22,-1.176097744051235e-20,0.6283185307179586,0.05,1.8290402915511532,11.4,0.0,0.0,0.0,0.0,0.0,0.0,0.0,0.0,0.0,0.0,0.03769911184307752,-0.0014299134941693397,0.0,-1.0744285968676012e-05,-1.228923361596188e-20,-0.00022414719730694927,1.4391242912634003e-19,0.0038471031970786114,0.0,-0.002759956194859316,0.0,-4.1099220085535633e-22,0.0,0.0,0.0,0.0,0.0,0.0,0.0,0.0,0.0,0.0,0.0,0.0,0.0,2.16,-0.0014299134941693397,-0.0006156022398867649,-7.041212196449112e-19,-0.00022414719730694927,1.4391242912634003e-19,0.0038471031970786114,0.0,-0.002759956194859316,0.0,-2.354811852180494e-20,0.0,0.0,0.060000000000000005
-4021.767121290091,0.0,0.0,0.0,-361959.0409161082,0.0,-4021.767121290091,2479338.7561463322,43093.55,60.94689747964199,-923017.8260347296,-1.1338077082097694e-13,-13075661.026272248,-6.891787052154541e-08,-37250129.174781196,-4.0512531995773315e-08,75.59014255588409,0.0,-1979231.775248255,0.0,-322.14064396731555,5.684341886080801e-13,0.0,-0.0009932769116264358,-0.03970350789464489,-7.515263162089825e-06,-0.00029522665126096204,-8.318811907603608e-21,-3.4236751564564727e-19,-0.0001550586537756477,-0.006262562621258832,9.741734044311472e-20,4.009252623112425e-18,-2.873817831456539e-22,-1.176097744051235e-20,0.6283185307179586,0.05,1.8290402915511532,11.4,0.0,0.0,0.0,0.0,0.0,0.0,0.0,0.0,0.0,0.0,0.05654866776461627,-0.0032143467448869753,0.0,-2.3647347470312816e-05,-2.808769726590761e-20,-0.0005100815946220077,3.289151413366312e-19,0.007648058631156884,0.0,-0.00506050472588496,0.0,-9.312984109649615e-22,0.0,0.0,0.0,0.0,0.0,0.0,0.0,0.0,0.0,0.0,0.0,0.0,0.0,3.2399999999999998,-0.0032143467448869753,-0.0013548932067282882,-1.6093065095776474e-18,-0.0005100815946220077,3.289151413366312e-19,0.007648058631156884,0.0,-0.00506050472588496,0.0,-5.3359468415532366e-20,0.0,0.0,0.09
-3981.3330361366934,0.0,0.0,0.0,-358319.97325230273,0.0,-3981.3330361366934,2479338.7561463322,43093.55,60.94689747964199,-1182337.532882921,-2.2808648129366395e-13,-13016412.012225986,-5.960464477539063e-08,-28792737.471433386,-3.026798367500305e-08,329.415330465883,0.0,-1979037.6423515235,0.0,-1509.9126146063209,2.2737367544323206e-12,0.0,-0.003967020067811666,-0.0792071862563135,-2.8976852997002928e-05,-0.0005577998809888349,-3.4642847052705344e-20,-6.939237943725467e-19,-0.0006320887474494133,-0.01287779651974611,4.0567589975762044e-19,8.125817122024037e-18,-1.1378314579494466e-21,-2.1994804343088983e-20,0.6283185307179586,0.09999999999999999,1.8261621728060402,11.4,0.0,0.0,0.0,0.0,0.0,0.0,0.0,0.0,0.0,0.0,0.07539822368615502,-0.005708540482901578,0.0,-4.1101300574956795e-05,-4.987774495567762e-20,-0.0009170297554752905,5.840744028280278e-19,0.01189858952503194,0.0,-0.007068072183016864,0.0,-1.6282211598731002e-21,0.0,0.0,0.0,0.0,0.0,0.0,0.0,0.0,0.0,0.0,0.0,0.0,0.0,4.319999999999999,-0.005708540482901578,-0.0023549310554436486,-2.857784277590259e-18,-0.0009170297554752905,5.840744028280278e-19,0.01189858952503194,0.0,-0.007068072183016864,0.0,-9.32902005746243e-20,0.0,0.0,0.11999999999999998
-3981.3330361366934,0.0,0.0,0.0,-358319.97325230273,0.0,-3981.3330361366934,2479338.7561463322,43093.55,60.94689747964199,-1182337.532882921,-2.2808648129366395e-13,-13016412.012225986,-5.960464477539063e-08,-28792737.471433386,-3.026798367500305e-08,329.415330465883,0.0,-1979037.6423515235,0.0,-1509.9126146063209,2.2737367544323206e-12,0.0,-0.003967020067811666,-0.0792071862563135,-2.8976852997002928e-05,-0.0005577998809888349,-3.4642847052705344e-20,-6.939237943725467e-19,-0.0006320887474494133,-0.01287779651974611,4.0567589975762044e-19,8.125817122024037e-18,-1.1378314579494466e-21,-2.1994804343088983e-20,0.6283185307179586,0.09999999999999999,1.8261621728060402,11.4,0.0,0.0,0.0,0.0,0.0,0.0,0.0,0.0,0.0,0.0,0.09424777960769377,-0.008909522244917959,0.0,-6.276225423534311e-05,-7.736740701638753e-20,-0.0014490880318098788,9.059672877594875e-19,0.016340443206402988,0.0,-0.008519756712816936,0.0,-2.5643970581352893e-21,0.0,0.0,0.0,0.0,0.0,0.0,0.0,0.0,0.0,0.0,0.0,0.0,0.0,5.399999999999999,-0.008909522244917959,-0.003596012280412236,-4.432825893909839e-18,-0.0014490880318098788,9.059672877594875e-19,0.016340443206402988,0.0,-0.008519756712816936,0.0,-1.469291284269165e-19,0.0,0.0,0.15
-3944.2186769422888,0.0,0.0,0.0,-354979.6809248059,0.0,-3944.2186769422888,2479338.7561463322,43093.55,60.94689747964199,-1439857.596057602,-3.29735749940646e-13,-12940812.857890978,-7.916241884231567e-08,-20309719.70542366,-4.6100467443466187e-08,768.3992603658698,0.0,-1978716.2117857395,0.0,-3870.866006799042,4.547473508864641e-12,0.0,-0.008909522244917959,-0.1184424850454239,-6.276225423534311e-05,-0.0007884014510677181,-7.736740701638753e-20,-1.018267868393513e-18,-0.0014490880318098788,-0.019868284218319633,9.059672877594875e-19,1.1923359469066411e-17,-2.5643970581352893e-21,-3.48623244241464e-20,0.6283185307179586,0.15,1.8213686625131607,11.4,0.0,0.0,0.0,0.0,0.0,0.0,0.0,0.0,0.0,0.0,0.11309733552923253,-0.012813878430635296,0.0,-8.829440342627735e-05,-1.109059285193847e-19,-0.0021106090624431533,1.2986794211531186e-18,0.021052887235297513,0.0,-0.009564184761868235,0.0,-3.723051895691191e-21,0.0,0.0,0.0,0.0,0.0,0.0,0.0,0.0,0.0,0.0,0.0,0.0,0.0,6.479999999999999,-0.012813878430635296,-0.005058896670951127,-6.354441627140334e-18,-0.0021106090624431533,1.2986794211531186e-18,0.021052887235297513,0.0,-0.009564184761868235,0.0,-2.1331516053128561e-19,0.0,0.0,0.18000000000000002
-3910.262987904523,0.0,0.0,0.0,-351923.6689114069,0.0,-3910.262987904523,2479338.7561463322,43093.55,60.94689747964199,-1695222.2283556757,-4.2927611949021083e-13,-12848989.184143659,-6.239861249923706e-08,-11813462.020292334,-3.725290298461914e-08,1406.6798831532942,0.0,-1978269.9362502927,0.0,-7726.212171504274,7.275957614183426e-12,0.0,-0.01580566171830304,-0.15734139426103863,-0.00010730220000767475,-0.0009880551907872146,-1.3650312965139143e-19,-1.3471108425063739e-18,-0.002625750437529158,-0.02726699655105667,1.5983971627015387e-18,1.5773174263599685e-17,-4.601267702594644e-21,-4.625534763660071e-20,0.6283185307179586,0.20000000000000004,1.8146647884018339,11.4,0.0,0.0,0.0,0.0,0.0,0.0,0.0,0.0,0.0,0.0,0.1319468914507713,-0.0174177567196931,0.0,-0.00011736483059132315,-1.5016376567102366e-19,-0.0029060504762374205,1.758346973863654e-18,0.02633646360764172,0.0,-0.010622456486597976,0.0,-5.0756131161010145e-21,0.0,0.0,0.0,0.0,0.0,0.0,0.0,0.0,0.0,0.0,0.0,0.0,0.0,7.559999999999999,-0.0174177567196931,-0.00672450945615071,-8.603750008741132e-18,-0.0029060504762374205,1.758346973863654e-18,0.02633646360764172,0.0,-0.010622456486597976,0.0,-2.9081120999383244e-19,0.0,0.0,0.21000000000000005
-3910.262987904523,0.0,0.0,0.0,-351923.6689114069,0.0,-3910.262987904523,2479338.7561463322,43093.55,60.94689747964199,-1695222.2283556757,-4.2927611949021083e-13,-12848989.184143659,-6.239861249923706e-08,-11813462.020292334,-3.725290298461914e-08,1406.6798831532942,0.0,-1978269.9362502927,0.0,-7726.212171504274,7.275957614183426e-12,0.0,-0.01580566171830304,-0.15734139426103863,-0.00010730220000767475,-0.0009880551907872146,-1.3650312965139143e-19,-1.3471108425063739e-18,-0.002625750437529158,-0.02726699655105667,1.5983971627015387e-18,1.5773174263599685e-17,-4.601267702594644e-21,-4.625534763660071e-20,0.6283185307179586,0.20000000000000004,1.8146647884018339,11.4,0.0,0.0,0.0,0.0,0.0,0.0,0.0,0.0,0.0,0.0,0.15079644737231004,-0.022716868734557295,0.0,-0.00014963622952568332,-1.9521466113819988e-19,-0.0038397561069056074,2.285828494778432e-18,0.0325254110631449,0.0,-0.012162015188182494,0.0,-6.650707182861416e-21,0.0,0.0,0.0,0.0,0.0,0.0,0.0,0.0,0.0,0.0,0.0,0.0,0.0,8.639999999999999,-0.022716868734557295,-0.00857352441407253,-1.1184976182295381e-17,-0.0038397561069056074,2.285828494778432e-18,0.0325254110631449,0.0,-0.012162015188182494,0.0,-3.810574523553006e-19,0.0,0.0,0.24000000000000007
-3879.5431512108103,0.0,0.0,0.0,-349158.8836089729,0.0,-3879.5431512108103,2479338.7561463322,43093.55,60.94689747964199,-1948088.2474524467,-5.224566280549912e-13,-12741090.209328188,-6.51925802230835e-08,-3316360.087250626,-3.166496753692627e-08,2256.7074867198244,0.0,-1977701.9151898627,0.0,-13371.577770743519,1.0913936421275139e-11,0.0,-0.02463693214083909,-0.19583655671383282,-0.0001610449764337731,-0.001156294247266171,-2.1169913341169147e-19,-1.6734735220376314e-18,-0.004182426644310503,-0.035062548261971256,2.4788343493101166e-18,1.95934724131565e-17,-7.219194325727873e-21,-5.83034790622078e-20,0.6283185307179586,0.25000000000000006,1.8060575819088087,11.4,0.0,0.0,0.0,0.0,0.0,0.0,0.0,0.0,0.0,0.0,0.1696460032938488,-0.02870649294149063,0.0,-0.00018476103358838937,-2.4648849075148626e-19,-0.004915770740208668,2.886152743304537e-18,0.03981648324452589,0.0,-0.014489243797956066,0.0,-8.425159607602804e-21,0.0,0.0,0.0,0.0,0.0,0.0,0.0,0.0,0.0,0.0,0.0,0.0,0.0,9.719999999999999,-0.02870649294149063,-0.010586027443089554,-1.4122750218609587e-17,-0.004915770740208668,2.886152743304537e-18,0.03981648324452589,0.0,-0.014489243797956066,0.0,-4.827260872397375e-19,0.0,0.0,0.2700000000000001
-3879.5431512108103,0.0,0.0,0.0,-349158.8836089729,0.0,-3879.5431512108103,2479338.7561463322,43093.55,60.94689747964199,-1948088.2474524467,-5.224566280549912e-13,-12741090.209328188,-6.51925802230835e-08,-3316360.087250626,-3.166496753692627e-08,2256.7074867198244,0.0,-1977701.9151898627,0.0,-13371.577770743519,1.0913936421275139e-11,0.0,-0.02463693214083909,-0.19583655671383282,-0.0001610449764337731,-0.001156294247266171,-2.1169913341169147e-19,-1.6734735220376314e-18,-0.004182426644310503,-0.035062548261971256,2.4788343493101166e-18,1.95934724131565e-17,-7.219194325727873e-21,-5.83034790622078e-20,0.6283185307179586,0.25000000000000006,1.8060575819088087,11.4,0.0,0.0,0.0,0.0,0.0,0.0,0.0,0.0,0.0,0.0,0.18849555921538755,-0.035381477794661345,0.0,-0.00022237928321836004,-3.0379474372777786e-19,-0.006137759025068709,3.557082626852836e-18,0.048180544488431745,0.0,-0.017641263788863423,0.0,-1.0388892289662873e-20,0.0,0.0,0.0,0.0,0.0,0.0,0.0,0.0,0.0,0.0,0.0,0.0,0.0,10.799999999999997,-0.035381477794661345,-0.012741394379556445,-1.7406156653860108e-17,-0.006137759025068709,3.557082626852836e-18,0.048180544488431745,0.0,-0.017641263788863423,0.0,-5.952396820136849e-19,0.0,0.0,0.3000000000000001
-3852.3398869345306,0.0,0.0,0.0,-346710.5898241077,0.0,-3852.3398869345306,2479338.7561463322,43093.55,60.94689747964199,-2198125.0453609414,-6.154983283191941e-13,-12617287.979723986,-4.7497451305389404e-08,5169150.19094713,-2.3748725652694702e-08,3326.7607278375654,0.0,-1977015.913154509,0.0,-21051.267852501944,1.8189894035458565e-11,0.0,-0.035381477794661345,-0.2338613720504547,-0.00022237928321836004,-0.001291406021713077,-3.0379474372777786e-19,-2.012334474525619e-18,-0.006137759025068709,-0.043203538823316005,3.557082626852836e-18,2.3559590069211683e-17,-1.0388892289662873e-20,-6.798028604731835e-20,0.6283185307179586,0.3000000000000001,1.7955560708032563,11.4,0.0,0.0,0.0,0.0,0.0,0.0,0.0,0.0,0.0,0.0,0.2073451151369263,-0.042736245137066906,0.0,-0.0002621206722147911,-3.6656997681996835e-19,-0.0075090454303513125,4.292013547128169e-18,0.057378821977198326,0.0,-0.021403918871106677,0.0,-1.2492612900436222e-20,0.0,0.0,0.0,0.0,0.0,0.0,0.0,0.0,0.0,0.0,0.0,0.0,0.0,11.879999999999999,-0.042736245137066906,-0.015018408241039595,-2.1002912567992604e-17,-0.0075090454303513125,4.292013547128169e-18,0.057378821977198326,0.0,-0.021403918871106677,0.0,-7.1577399428568165e-19,0.0,0.0,0.3300000000000001
-3828.893843652986,0.0,0.0,0.0,-344600.4459287686,0.0,-3828.893843652986,2479338.7561463322,43093.55,60.94689747964199,-2445007.498958489,-6.974321962287235e-13,-12477780.77431915,-5.587935447692871e-08,13630716.310265565,-1.7695128917694092e-08,4622.081002189545,0.0,-1976216.3183190706,0.0,-30977.22833599709,2.1827872842550278e-11,0.0,-0.04801413408723831,-0.2713501043360451,-0.00028960895196844034,-0.0013919690013060118,-4.1184069596727663e-19,-2.333192273990954e-18,-0.008507720035691592,-0.051642199557932124,4.821996740406337e-18,2.7314280194053808e-17,-1.397913311684265e-20,-7.586066157866565e-20,0.6283185307179586,0.35000000000000014,1.7831712697178919,11.4,0.0,0.0,0.0,0.0,0.0,0.0,0.0,0.0,0.0,0.0,0.22619467105846505,-0.05076479387300723,0.0,-0.00030360945764491376,-4.353546682812439e-19,-0.0090327406016368,5.097268314060591e-18,0.06705985525898267,0.0,-0.02542755370823852,0.0,-1.475519708763633e-20,0.0,0.0,0.0,0.0,0.0,0.0,0.0,0.0,0.0,0.0,0.0,0.0,0.0,12.959999999999997,-0.05076479387300723,-0.017395540543309485,-2.4943985083833242e-17,-0.0090327406016368,5.097268314060591e-18,0.06705985525898267,0.0,-0.02542755370823852,0.0,-8.454105190052856e-19,0.0,0.0,0.36000000000000015
-3828.893843652986,0.0,0.0,0.0,-344600.4459287686,0.0,-3828.893843652986,2479338.7561463322,43093.55,60.94689747964199,-2445007.498958489,-6.974321962287235e-13,-12477780.77431915,-5.587935447692871e-08,13630716.310265565,-1.7695128917694092e-08,4622.081002189545,0.0,-1976216.3183190706,0.0,-30977.22833599709,2.1827872842550278e-11,0.0,-0.04801413408723831,-0.2713501043360451,-0.00028960895196844034,-0.0013919690013060118,-4.1184069596727663e-19,-2.333192273990954e-18,-0.008507720035691592,-0.051642199557932124,4.821996740406337e-18,2.7314280194053808e-17,-1.397913311684265e-20,-7.586066157866565e-20,0.6283185307179586,0.35000000000000014,1.7831712697178919,11.4,0.0,0.0,0.0,0.0,0.0,0.0,0.0,0.0,0.0,0.0,0.2450442269800038,-0.05946070392078156,0.0,-0.0003464699877789488,-5.104930327414512e-19,-0.010711890554476581,5.9768707536251296e-18,0.0768847036023142,0.0,-0.029377571345069912,0.0,-1.7156345757798882e-20,0.0,0.0,0.0,0.0,0.0,0.0,0.0,0.0,0.0,0.0,0.0,0.0,0.0,14.039999999999997,-0.05946070392078156,-0.01985126802768298,-2.9249096246918904e-17,-0.010711890554476581,5.9768707536251296e-18,0.0768847036023142,0.0,-0.029377571345069912,0.0,-9.8298620378905e-19,0.0,0.0,0.3900000000000002
-3809.2476301152046,0.0,0.0,0.0,-342832.2867103681,0.0,-3809.2476301152046,2479338.7561463322,43093.55,60.94689747964199,-2688411.579615473,-7.743611105218941e-13,-12322796.131964307,-9.266659617424011e-08,22056214.470930293,-4.0978193283081055e-08,6147.8825186906615,0.0,-1975308.0620665653,0.0,-43366.1437955033,2.9103830456733704e-11,0.0,-0.0625064736500648,-0.308237998369456,-0.0003609972879123277,-0.0014578296430402136,-5.367010063883907e-19,-2.6654620505226216e-18,-0.01130668460945391,-0.060364056396318984,6.283663394943739e-18,3.120194722600165e-17,-1.7995912966342306e-20,-8.491979078717595e-20,0.6283185307179586,0.4000000000000002,1.768916168596145,11.4,0.0,0.0,0.0,0.0,0.0,0.0,0.0,0.0,0.0,0.0,0.2638937829015426,-0.06881714044459084,0.0,-0.0003903307324597449,-5.917849201079655e-19,-0.012549586683087128,6.928469406909824e-18,0.0866254050466722,0.0,-0.03305333540428858,0.0,-1.972877072809692e-20,0.0,0.0,0.0,0.0,0.0,0.0,0.0,0.0,0.0,0.0,0.0,0.0,0.0,15.119999999999997,-0.06881714044459084,-0.02236430358419347,-3.3906778301673023e-17,-0.012549586683087128,6.928469406909824e-18,0.0866254050466722,0.0,-0.03305333540428858,0.0,-1.1303752977011938e-18,0.0,0.0,0.4200000000000002
-3809.2476301152046,0.0,0.0,0.0,-342832.2867103681,0.0,-3809.2476301152046,2479338.7561463322,43093.55,60.94689747964199,-2688411.579615473,-7.743611105218941e-13,-12322796.131964307,-9.266659617424011e-08,22056214.470930293,-4.0978193283081055e-08,6147.8825186906615,0.0,-1975308.0620665653,0.0,-43366.1437955033,2.9103830456733704e-11,0.0,-0.0625064736500648,-0.308237998369456,-0.0003609972879123277,-0.0014578296430402136,-5.367010063883907e-19,-2.6654620505226216e-18,-0.01130668460945391,-0.060364056396318984,6.283663394943739e-18,3.120194722600165e-17,-1.7995912966342306e-20,-8.491979078717595e-20,0.6283185307179586,0.4000000000000002,1.768916168596145,11.4,0.0,0.0,0.0,0.0,0.0,0.0,0.0,0.0,0.0,0.0,0.28274333882308134,-0.07882685835590696,0.0,-0.0004348256601497603,-6.79335303912406e-19,-0.014549000824395652,7.953285626778408e-18,0.09620170628201394,0.0,-0.03643290511875887,0.0,-2.2478104718406806e-20,0.0,0.0,0.0,0.0,0.0,0.0,0.0,0.0,0.0,0.0,0.0,0.0,0.0,16.199999999999996,-0.07882685835590696,-0.02491367515057113,-3.8923045788417984e-17,-0.014549000824395652,7.953285626778408e-18,0.09620170628201394,0.0,-0.03643290511875887,0.0,-1.287900531817812e-18,0.0,0.0,0.45000000000000023
-3793.306229639199,0.0,0.0,0.0,-341397.5606675278,0.0,-3793.306229639199,2479338.7561463322,43093.55,60.94689747964199,-2928017.1583416183,-8.492108256915741e-13,-12152590.230995279,-7.078051567077637e-08,30433792.034897022,-3.5390257835388184e-08,7910.324091862654,0.0,-1974296.5657908996,0.0,-58446.26939528249,4.3655745685100555e-11,0.0,-0.07882685835590696,-0.3444613984686188,-0.0004348256601497603,-0.0014897070715814019,-6.79335303912406e-19,-3.0206359673193798e-18,-0.014549000824395652,-0.06937815154365486,7.953285626778408e-18,3.5357104723554364e-17,-2.2478104718406806e-20,-9.435886146629778e-20,0.6283185307179586,0.45000000000000023,1.7528057190675093,11.4,0.0,0.0,0.0,0.0,0.0,0.0,0.0,0.0,0.0,0.0,0.3015928947446201,-0.0894822070700433,0.0,-0.00047959210422850667,-1.370213811589003e-15,-0.016713333493155097,8.853776244609729e-14,0.10565149174513708,0.0,-0.03963786003800093,0.0,-2.6386053130595652e-20,0.0,0.0,0.0,0.0,0.0,0.0,0.0,0.0,0.0,0.0,0.0,0.0,0.0,17.279999999999998,-0.0894822070700433,-0.027478603460091715,-7.850746843458365e-14,-0.016713333493155097,8.853776244609729e-14,0.10565149174513708,0.0,-0.03963786003800093,0.0,-1.5118094823910841e-18,0.0,0.0,0.48000000000000026
-3781.036806524639,0.0,0.0,0.0,-340293.3125872177,0.0,-3781.036806524639,2479338.7561463322,43093.55,60.94689747964199,-3163513.993188144,-4.605609679352766e-06,-11967443.952843158,-1.9610393792390823e-05,38751759.584527515,-1.8495135009288788e-05,9914.1689453125,0.009070783853530884,-1973187.75,0.0,0.0,0.0,0.0,-0.09694049713308968,-0.3799578600565075,-0.0005094069415800909,-0.0014879003341002357,-6.421771556676799e-15,-3.695021784630263e-13,-0.01824938089704236,-0.0786843706836788,4.151109330134715e-13,2.3888115825443125e-11,-4.926813472866167e-20,-2.041605218315992e-18,0.6283185307179586,0.5000000000000002,1.734856818765347,11.4,0.0,0.0,0.0,0.0,0.0,0.0,0.0,0.0,0.0,0.0,0.32044245066615884,-0.10077513548743447,0.0,-0.0005242650724430363,-1.0646319207199401e-14,-0.019045691030134662,6.882307020906762e-13,0.11505779629970966,0.0,-0.04284571755770574,0.0,-7.619280988659531e-20,0.0,0.0,0.0,0.0,0.0,0.0,0.0,0.0,0.0,0.0,0.0,0.0,0.0,18.359999999999996,-0.10077513548743447,-0.03003817599710634,-6.099891579215903e-13,-0.019045691030134662,6.882307020906762e-13,0.11505779629970966,0.0,-0.04284571755770574,0.0,-4.3655264357445635e-18,0.0,0.0,0.5100000000000002
-3781.036806524639,0.0,0.0,0.0,-340293.3125872177,0.0,-3781.036806524639,2479338.7561463322,43093.55,60.94689747964199,-3163513.993188144,-4.605609679352766e-06,-11967443.952843158,-1.9610393792390823e-05,38751759.584527515,-1.8495135009288788e-05,9914.1689453125,0.009070783853530884,-1973187.75,0.0,0.0,0.0,0.0,-0.09694049713308968,-0.3799578600565075,-0.0005094069415800909,-0.0014879003341002357,-6.421771556676799e-15,-3.695021784630263e-13,-0.01824938089704236,-0.0786843706836788,4.151109330134715e-13,2.3888115825443125e-11,-4.926813472866167e-20,-2.041605218315992e-18,0.6283185307179586,0.5000000000000002,1.734856818765347,11.4,0.0,0.0,0.0,0.0,0.0,0.0,0.0,0.0,0.0,0.0,0.3392920065876976,-0.11269719722830134,0.0,-0.0005684814366638063,-2.9645311564614846e-14,-0.021549087413307976,1.9166316964507076e-12,0.12447279190698253,0.0,-0.046196685677193365,0.0,-2.607367637987033e-19,0.0,0.0,0.0,0.0,0.0,0.0,0.0,0.0,0.0,0.0,0.0,0.0,0.0,19.439999999999998,-0.11269719722830134,-0.03257158705236972,-1.6985512350028017e-12,-0.021549087413307976,1.9166316964507076e-12,0.12447279190698253,0.0,-0.046196685677193365,0.0,-1.493911612956513e-17,0.0,0.0,0.5400000000000003
-3772.4592474258448,0.0,0.0,0.0,-339521.3322683257,0.0,-3772.4592474258448,2479338.7561463322,43093.55,60.94689747964199,-3394605.524289322,-1.1196445779264211e-05,-11767662.938382706,-5.2891671657562256e-05,46998644.76780443,-4.909466952085495e-05,12161.046875,0.00907810777425766,-1971987.875,0.0,0.0,0.0,0.0,-0.11680950909325923,-0.41466625258009404,-0.0005830559325991655,-0.0014524410828779925,-3.808773262712858e-14,-8.969566768864473e-13,-0.022422060336554833,-0.08826682885727187,2.462536939370966e-12,5.800077414006753e-11,-3.696328540162531e-19,-1.233494098130663e-17,0.6283185307179586,0.5500000000000003,1.7150882936036125,11.4,0.0,0.0,0.0,0.0,0.0,0.0,0.0,0.0,0.0,0.0,0.35814156250923634,-0.1252395561156328,0.0,-0.0006118773170280413,-5.813487956067754e-14,-0.0242263772527652,3.758948748688456e-12,0.13386495601381004,0.0,-0.049729328409246966,0.0,-6.82287869233189e-19,0.0,0.0,0.0,0.0,0.0,0.0,0.0,0.0,0.0,0.0,0.0,0.0,0.0,20.519999999999996,-0.1252395561156328,-0.03505798784549503,-3.3308832413281764e-12,-0.0242263772527652,3.758948748688456e-12,0.13386495601381004,0.0,-0.049729328409246966,0.0,-3.909221532003554e-17,0.0,0.0,0.5700000000000003
-3772.4592474258448,0.0,0.0,0.0,-339521.3322683257,0.0,-3772.4592474258448,2479338.7561463322,43093.55,60.94689747964199,-3394605.524289322,-1.1196445779264211e-05,-11767662.938382706,-5.2891671657562256e-05,46998644.76780443,-4.909466952085495e-05,12161.046875,0.00907810777425766,-1971987.875,0.0,0.0,0.0,0.0,-0.11680950909325923,-0.41466625258009404,-0.0005830559325991655,-0.0014524410828779925,-3.808773262712858e-14,-8.969566768864473e-13,-0.022422060336554833,-0.08826682885727187,2.462536939370966e-12,5.800077414006753e-11,-3.696328540162531e-19,-1.233494098130663e-17,0.6283185307179586,0.5500000000000003,1.7150882936036125,11.4,0.0,0.0,0.0,0.0,0.0,0.0,0.0,0.0,0.0,0.0,0.3769911184307751,-0.1383929918919331,0.0,-0.0006540870771296788,-9.610557327849455e-14,-0.027080237765387264,6.214891323432955e-12,0.1431093640965737,0.0,-0.05336816707890816,0.0,-1.4512668876624774e-18,0.0,0.0,0.0,0.0,0.0,0.0,0.0,0.0,0.0,0.0,0.0,0.0,0.0,21.599999999999994,-0.1383929918919331,-0.03747642895357855,-5.5064437365429995e-12,-0.027080237765387264,6.214891323432955e-12,0.1431093640965737,0.0,-0.05336816707890816,0.0,-8.315146761014652e-17,0.0,0.0,0.6000000000000003
-3767.629868951115,0.0,0.0,0.0,-339086.68820560013,0.0,-3767.629868951115,2479338.7561463322,43093.55,60.94689747964199,-3621007.598286127,-1.7812088946008702e-05,-11553577.461385045,-9.182142093777657e-05,55163181.35368437,-8.396152406930923e-05,14649.87109375,0.009083036333322525,-1970704.0,0.0,0.0,0.0,0.0,-0.1383929918919331,-0.44852686546344905,-0.0006540870771296788,-0.0013831597343804166,-9.610557327849455e-14,-1.4235780736601368e-12,-0.027080237765387264,-0.09810008571834425,6.214891323432955e-12,9.208776724628593e-11,-1.4512668876624774e-18,-3.2718309150698675e-17,0.6283185307179586,0.6000000000000003,1.6935208780310693,11.4,0.0,0.0,0.0,0.0,0.0,0.0,0.0,0.0,0.0,0.0,0.39584067435231385,-0.15214790617850654,0.0,-0.0006947454909621432,-1.4354509253751895e-13,-0.030113216432787072,9.284080547115344e-12,0.15201843562055645,0.0,-0.05695994173544746,0.0,-2.686171519981553e-18,0.0,0.0,0.0,0.0,0.0,0.0,0.0,0.0,0.0,0.0,0.0,0.0,0.0,22.679999999999996,-0.15214790617850654,-0.03980598446787508,-8.224527972214685e-12,-0.030113216432787072,9.284080547115344e-12,0.15201843562055645,0.0,-0.05695994173544746,0.0,-1.5390629114318426e-16,0.0,0.0,0.6300000000000003
-3766.5567142767227,0.0,0.0,0.0,-338990.104284905,0.0,-3766.5567142767227,2479338.7561463322,43093.55,60.94689747964199,-3842445.4709044546,-2.4463699425925166e-05,-11325543.686977874,-0.0001357048749923706,63234349.73455719,-0.0001224735751748085,17378.5078125,0.009085655212402344,-1969343.375,0.0,0.0,0.0,0.0,-0.16164709527822527,-0.4814815107186634,-0.0007208101846389448,-0.001280197589810549,-1.8042456314556318e-13,-1.948931763490365e-12,-0.03223593945122274,-0.10816614799899117,1.1670674361013175e-11,1.2613581817386902e-10,-3.8300704475917044e-18,-6.440858600391366e-17,0.6283185307179586,0.6500000000000004,1.6701771932837224,11.4,0.0,0.0,0.0,0.0,0.0,0.0,0.0,0.0,0.0,0.0,0.4146902302738526,-0.16649432869081218,0.0,-0.0007334903743327055,-2.0043836061551098e-13,-0.03332779677896255,1.2966054490487667e-11,0.16039355097150926,0.0,-0.06033535776183962,0.0,-4.51270465511609e-18,0.0,0.0,0.0,0.0,0.0,0.0,0.0,0.0,0.0,0.0,0.0,0.0,0.0,23.759999999999998,-0.16649432869081218,-0.042025902762734914,-1.1484272115790002e-11,-0.03332779677896255,1.2966054490487667e-11,0.16039355097150926,0.0,-0.06033535776183962,0.0,-2.585589309271917e-16,0.0,0.0,0.6600000000000004
-3766.5567142767227,0.0,0.0,0.0,-338990.104284905,0.0,-3766.5567142767227,2479338.7561463322,43093.55,60.94689747964199,-3842445.4709044546,-2.4463699425925166e-05,-11325543.686977874,-0.0001357048749923706,63234349.73455719,-0.0001224735751748085,17378.5078125,0.009085655212402344,-1969343.375,0.0,0.0,0.0,0.0,-0.16164709527822527,-0.4814815107186634,-0.0007208101846389448,-0.001280197589810549,-1.8042456314556318e-13,-1.948931763490365e-12,-0.03223593945122274,-0.10816614799899117,1.1670674361013175e-11,1.2613581817386902e-10,-3.8300704475917044e-18,-6.440858600391366e-17,0.6283185307179586,0.6500000000000004,1.6701771932837224,11.4,0.0,0.0,0.0,0.0,0.0,0.0,0.0,0.0,0.0,0.0,0.43353978619539135,-0.1814219236912889,0.0,-0.0007699648711760392,-2.6676776308899334e-13,-0.03672645633529298,1.7260284183970002e-11,0.168073463984018,0.0,-0.06336726693656736,0.0,-7.063117581932567e-18,0.0,0.0,0.0,0.0,0.0,0.0,0.0,0.0,0.0,0.0,0.0,0.0,0.0,24.839999999999993,-0.1814219236912889,-0.04411573749172117,-1.5284666935145144e-11,-0.03672645633529298,1.7260284183970002e-11,0.168073463984018,0.0,-0.06336726693656736,0.0,-4.0468682764938354e-16,0.0,0.0,0.6900000000000004
-3769.153776250636,0.0,0.0,0.0,-339223.83986255724,0.0,-3769.153776250636,2479338.7561463322,43093.55,60.94689747964199,-4058653.1910903677,-3.116148670468008e-05,-11083944.293724488,-0.00018374435603618622,71201447.61753973,-0.0001639779657125473,20345.51953125,0.009087573736906052,-1967913.25,0.0,0.0,0.0,0.0,-0.18652509990551686,-0.513473629769758,-0.0007815577707301359,-0.0011443005677953088,-2.9097113805560064e-13,-2.4726250103314193e-12,-0.0379006809241012,-0.11846211765663504,1.882765411366361e-11,1.6013448927531913e-10,-8.097817653888775e-18,-1.0843023544131607e-16,0.6283185307179586,0.7000000000000004,1.6450817236582709,11.4,0.0,0.0,0.0,0.0,0.0,0.0,0.0,0.0,0.0,0.0,0.4523893421169301,-0.19691999668698693,0.0,-0.0008038187257257643,-3.4251364915762636e-13,-0.04031169664731442,2.216620647808365e-11,0.17496071313900247,0.0,-0.06600250594362943,0.0,-1.0475392922581605e-17,0.0,0.0,0.0,0.0,0.0,0.0,0.0,0.0,0.0,0.0,0.0,0.0,0.0,25.919999999999995,-0.19691999668698693,-0.04605542047767019,-1.9624586522356595e-11,-0.04031169664731442,2.216620647808365e-11,0.17496071313900247,0.0,-0.06600250594362943,0.0,-6.001958032051386e-16,0.0,0.0,0.7200000000000004
-3769.153776250636,0.0,0.0,0.0,-339223.83986255724,0.0,-3769.153776250636,2479338.7561463322,43093.55,60.94689747964199,-4058653.1910903677,-3.116148670468008e-05,-11083944.293724488,-0.00018374435603618622,71201447.61753973,-0.0001639779657125473,20345.51953125,0.009087573736906052,-1967913.25,0.0,0.0,0.0,0.0,-0.18652509990551686,-0.513473629769758,-0.0007815577707301359,-0.0011443005677953088,-2.9097113805560064e-13,-2.4726250103314193e-12,-0.0379006809241012,-0.11846211765663504,1.882765411366361e-11,1.6013448927531913e-10,-8.097817653888775e-18,-1.0843023544131607e-16,0.6283185307179586,0.7000000000000004,1.6450817236582709,11.4,0.0,0.0,0.0,0.0,0.0,0.0,0.0,0.0,0.0,0.0,0.47123889803846886,-0.21297750136032403,0.0,-0.0008347083872724697,-4.276545276795001e-13,-0.04408603976912348,2.7683237189501866e-11,0.18101925229073088,0.0,-0.06825905557315516,0.0,-1.489236377718722e-17,0.0,0.0,0.0,0.0,0.0,0.0,0.0,0.0,0.0,0.0,0.0,0.0,0.0,26.999999999999993,-0.21297750136032403,-0.047825267714883955,-2.4502799525696e-11,-0.04408603976912348,2.7683237189501866e-11,0.18101925229073088,0.0,-0.06825905557315516,0.0,-8.532695914063327e-16,0.0,0.0,0.7500000000000004
-3775.293346157109,0.0,0.0,0.0,-339776.40115414,0.0,-3775.293346157109,2479338.7561463322,43093.55,60.94689747964199,-4269375.632182894,-3.7915089809574855e-05,-10829186.785282118,-0.00023524928838014603,79054087.83861226,-0.0002078767865896225,23549.49609375,0.009089894592761993,-1966421.375,0.0,0.0,0.0,0.0,-0.21297750136032403,-0.5444483956546429,-0.0008347083872724697,-0.0009764864422689832,-4.276545276795001e-13,-2.9943569532522924e-12,-0.04408603976912348,-0.12899117134230703,2.7683237189501866e-11,1.940794099816174e-10,-1.489236377718722e-17,-1.6560037270248802e-16,0.6283185307179586,0.7500000000000004,1.6182607908314657,11.4,0.0,0.0,0.0,0.0,0.0,0.0,0.0,0.0,0.0,0.0,0.4900884539600076,-0.22958304671247096,0.0,-0.0008622962844952085,-5.221672643451832e-13,-0.04805200005730359,3.381078431393706e-11,0.18624924929858225,0.0,-0.07019555451566985,0.0,-2.0461066961785084e-17,0.0,0.0,0.0,0.0,0.0,0.0,0.0,0.0,0.0,0.0,0.0,0.0,0.0,28.079999999999995,-0.22958304671247096,-0.04940593779138757,-2.991798044687099e-11,-0.04805200005730359,3.381078431393706e-11,0.18624924929858225,0.0,-0.07019555451566985,0.0,-1.1723327812448515e-15,0.0,0.0,0.7800000000000005
-3784.8691839844714,0.0,0.0,0.0,-340638.22655860253,0.0,-3784.8691839844714,2479338.7561463322,43093.55,60.94689747964199,-4474370.890032303,-4.4732989793472875e-05,-10561701.276371185,-0.0002895565703511238,86782169.42940532,-0.000253516249358654,26987.34765625,0.00909435749053955,-1964876.0,0.0,0.0,0.0,0.0,-0.24095209921682828,-0.5743528100084557,-0.0008786895002976386,-0.0007776500750488257,-5.9037040753182e-13,-3.513894640808202e-12,-0.050803650482819936,-0.13975108231198236,3.823471078992843e-11,2.2797071297359314e-10,-2.488761018450416e-17,-2.3654791253481046e-16,0.6283185307179586,0.8000000000000005,1.5897425262523117,11.4,0.0,0.0,0.0,0.0,0.0,0.0,0.0,0.0,0.0,0.0,0.5089380098815465,-0.24672490442550712,0.0,-0.0008862498779140539,-6.260276092719076e-13,-0.05221204846757442,4.054828248247845e-11,0.19065319169777428,0.0,-0.07187015433869615,0.0,-2.7332039503787722e-17,0.0,0.0,0.0,0.0,0.0,0.0,0.0,0.0,0.0,0.0,0.0,0.0,0.0,29.16,-0.24672490442550712,-0.05077837759845976,-3.586873986994527e-11,-0.05221204846757442,4.054828248247845e-11,0.19065319169777428,0.0,-0.07187015433869615,0.0,-1.5660105090518772e-15,0.0,0.0,0.8100000000000005
-3784.8691839844714,0.0,0.0,0.0,-340638.22655860253,0.0,-3784.8691839844714,2479338.7561463322,43093.55,60.94689747964199,-4474370.890032303,-4.4732989793472875e-05,-10561701.276371185,-0.0002895565703511238,86782169.42940532,-0.000253516249358654,26987.34765625,0.00909435749053955,-1964876.0,0.0,0.0,0.0,0.0,-0.24095209921682828,-0.5743528100084557,-0.0008786895002976386,-0.0007776500750488257,-5.9037040753182e-13,-3.513894640808202e-12,-0.050803650482819936,-0.13975108231198236,3.823471078992843e-11,2.2797071297359314e-10,-2.488761018450416e-17,-2.3654791253481046e-16,0.6283185307179586,0.8000000000000005,1.5897425262523117,11.4,0.0,0.0,0.0,0.0,0.0,0.0,0.0,0.0,0.0,0.0,0.5277875658030854,-0.26439101642209434,0.0,-0.0009062410792514143,-7.392103226147292e-13,-0.05656858659786709,4.789520158347485e-11,0.1942085552584893,0.0,-0.07330713790508357,0.0,-3.565855949058369e-17,0.0,0.0,0.0,0.0,0.0,0.0,0.0,0.0,0.0,0.0,0.0,0.0,0.0,30.24000000000001,-0.26439101642209434,-0.0519237890624868,-4.235363165832797e-11,-0.05656858659786709,4.789520158347485e-11,0.1942085552584893,0.0,-0.07330713790508357,0.0,-2.0430849623266123e-15,0.0,0.0,0.8400000000000005
-3797.8063271442315,0.0,0.0,0.0,-341802.5694429806,0.0,-3797.8063271442315,2479338.7561463322,43093.55,60.94689747964199,-4673410.8917250885,-5.162237110592676e-05,-10281939.218966015,-0.0003459174185991287,94375870.30443677,-0.0003003086894750595,30653.6171875,0.00910136103630066,-1963284.875,0.0,0.0,0.0,0.0,-0.2703940907307866,-0.6031357930467938,-0.0009119682207333551,-0.0005485054945840468,-7.790050229554391e-13,-4.031079453725788e-12,-0.05806483441927362,-0.15073216282087318,5.047951477901967e-11,2.618134434698498e-10,-3.878431527272406e-17,-3.2171759433675506e-16,0.6283185307179586,0.8500000000000005,1.5595568416360701,11.4,0.0,0.0,0.0,0.0,0.0,0.0,0.0,0.0,0.0,0.0,0.5466371217246243,-0.2825712786244794,0.0,-0.00092174535906819,-8.616884715874538e-13,-0.061118897942028405,5.5851002486554774e-11,0.19676755501251295,0.0,-0.07441256264480564,0.0,-4.569853467084942e-17,0.0,0.0,0.0,0.0,0.0,0.0,0.0,0.0,0.0,0.0,0.0,0.0,0.0,31.320000000000018,-0.2825712786244794,-0.05281211886037791,-4.9371112677039656e-11,-0.061118897942028405,5.5851002486554774e-11,0.19676755501251295,0.0,-0.07441256264480564,0.0,-2.6183331665719366e-15,0.0,0.0,0.8700000000000006
-3797.8063271442315,0.0,0.0,0.0,-341802.5694429806,0.0,-3797.8063271442315,2479338.7561463322,43093.55,60.94689747964199,-4673410.8917250885,-5.162237110592676e-05,-10281939.218966015,-0.0003459174185991287,94375870.30443677,-0.0003003086894750595,30653.6171875,0.00910136103630066,-1963284.875,0.0,0.0,0.0,0.0,-0.2703940907307866,-0.6031357930467938,-0.0009119682207333551,-0.0005485054945840468,-7.790050229554391e-13,-4.031079453725788e-12,-0.05806483441927362,-0.15073216282087318,5.047951477901967e-11,2.618134434698498e-10,-3.878431527272406e-17,-3.2171759433675506e-16,0.6283185307179586,0.8500000000000005,1.5595568416360701,11.4,0.0,0.0,0.0,0.0,0.0,0.0,0.0,0.0,0.0,0.0,0.5654866776461632,-0.30126394100951565,0.0,-0.0009314873188369872,-9.934314193032162e-13,-0.06584140591802701,6.441500927872456e-11,0.19788238453024135,0.0,-0.07486425128930088,0.0,-5.812434980660248e-17,0.0,0.0,0.0,0.0,0.0,0.0,0.0,0.0,0.0,0.0,0.0,0.0,0.0,32.40000000000003,-0.30126394100951565,-0.05337029203931623,-5.691942756176551e-11,-0.06584140591802701,6.441500927872456e-11,0.19788238453024135,0.0,-0.07486425128930088,0.0,-3.3302799308603646e-15,0.0,0.0,0.9000000000000006
-3824.741334674208,0.0,0.0,0.0,-344226.7201206789,0.0,-3824.741334674208,2479338.7561463322,43093.55,60.94689747964199,-4571884.992607093,-6.35259311606533e-05,-10329393.83129195,-0.00040269200690090656,111703891.9769117,-0.0004922598600387573,34235.64453125,0.009111065417528152,-1961635.25,0.0,0.0,0.0,0.0,-0.30126394100951565,-0.6315438598924805,-0.0009314873188369872,-0.00022026578068273892,-9.934314193032162e-13,-4.545510294018758e-12,-0.06584140591802701,-0.16019225563451292,6.441500927872456e-11,2.955973278664966e-10,-5.812434980660248e-17,-4.58937025046724e-16,0.6283185307179586,0.9000000000000006,1.5277353975910029,11.4,0.0,0.0,0.0,0.0,0.0,0.0,0.0,0.0,0.0,0.0,0.5843362335677021,-0.320461441932596,0.0,-0.0009351279450116731,-1.1344084309661701e-12,-0.07074208994723985,7.358667078086486e-11,0.1976406742920988,0.0,-0.07480026193441923,0.0,-7.320601279357684e-17,0.0,0.0,0.0,0.0,0.0,0.0,0.0,0.0,0.0,0.0,0.0,0.0,0.0,33.48000000000003,-0.320461441932596,-0.05357888455391059,-6.499681533841935e-11,-0.07074208994723985,7.358667078086486e-11,0.1976406742920988,0.0,-0.07480026193441923,0.0,-4.194395568052663e-15,0.0,0.0,0.9300000000000006
-3844.767998535622,0.0,0.0,0.0,-346029.1198682061,0.0,-3844.767998535622,2479338.7561463322,43093.55,60.94689747964199,-5620848.537621839,-7.593847141541711e-05,-10341991.335128132,-0.0004098378121852875,114492829.46741787,-0.0004439791664481163,38550.0078125,0.009123444557189941,-1959916.5,0.0,0.0,0.0,0.0,-0.3335389313550994,-0.6594266541975785,-0.0009346078390307203,8.109883540831795e-05,-1.2335053541304664e-12,-5.056866078045399e-12,-0.07413435414896899,-0.17237793708655436,8.003837048691434e-11,3.2932613045020744e-10,-8.46166302767021e-17,-5.966588522219657e-16,0.6283185307179586,0.9500000000000006,1.4943115704107766,11.4,0.0,0.0,0.0,0.0,0.0,0.0,0.0,0.0,0.0,0.0,0.6031857894892411,-0.3401606044106553,0.0,-0.000933505903342024,-1.2845836512292779e-12,-0.07587160254541198,8.336533612035133e-11,0.19669134306568298,0.0,-0.07478444615569407,0.0,-9.072074960073382e-17,0.0,0.0,0.0,0.0,0.0,0.0,0.0,0.0,0.0,0.0,0.0,0.0,0.0,34.560000000000045,-0.3401606044106553,-0.05348594841204534,-7.360122164694294e-11,-0.07587160254541198,8.336533612035133e-11,0.19669134306568298,0.0,-0.07478444615569407,0.0,-5.197916066385196e-15,0.0,0.0,0.9600000000000006
-3844.767998535622,0.0,0.0,0.0,-346029.1198682061,0.0,-3844.767998535622,2479338.7561463322,43093.55,60.94689747964199,-5620848.537621839,-7.593847141541711e-05,-10341991.335128132,-0.0004098378121852875,114492829.46741787,-0.0004439791664481163,38550.0078125,0.009123444557189941,-1959916.5,0.0,0.0,0.0,0.0,-0.3335389313550994,-0.6594266541975785,-0.0009346078390307203,8.109883540831795e-05,-1.2335053541304664e-12,-5.056866078045399e-12,-0.07413435414896899,-0.17237793708655436,8.003837048691434e-11,3.2932613045020744e-10,-8.46166302767021e-17,-5.966588522219657e-16,0.6283185307179586,0.9500000000000006,1.4943115704107766,11.4,0.0,0.0,0.0,0.0,0.0,0.0,0.0,0.0,0.0,0.0,0.62203534541078,-0.36035018208696523,0.0,-0.0009266095711973187,-1.4439243676027714e-12,-0.08124549001975839,9.375054383031982e-11,0.1950060250977073,0.0,-0.07474441407049992,0.0,-1.1074022202708685e-16,0.0,0.0,0.0,0.0,0.0,0.0,0.0,0.0,0.0,0.0,0.0,0.0,0.0,35.64000000000006,-0.36035018208696523,-0.05309081768603333,-8.273077219973522e-11,-0.08124549001975839,9.375054383031982e-11,0.1950060250977073,0.0,-0.07474441407049992,0.0,-6.34494734449375e-15,0.0,0.0,0.9900000000000007
-3863.283482491559,0.0,0.0,0.0,-347695.51342424034,0.0,-3863.283482491559,2479338.7561463322,43093.55,60.94689747964199,-5820215.034807773,-8.41982790498687e-05,-10005708.914606927,-0.00046670553274452686,122229007.27651194,-0.0004999088123440742,43361.7109375,0.009138263761997223,-1958156.75,0.0,0.0,0.0,0.0,-0.36718643379420035,-0.686248743106719,-0.0009230748366098579,0.0003851505873916934,-1.4990692518123272e-12,-5.565186364090928e-12,-0.0830911272611367,-0.1859278983002755,9.734700475796598e-11,3.6301305373709376e-10,-1.1800517822611575e-16,-7.41748880670976e-16,0.6283185307179586,1.0000000000000007,1.4593204170673446,11.4,0.0,0.0,0.0,0.0,0.0,0.0,0.0,0.0,0.0,0.0,0.6408849013323189,-0.3810152535105675,0.0,-0.0009140818037317539,-1.6123987210043824e-12,-0.08686442317318162,1.0474193694615056e-10,0.1922672860584204,0.0,-0.0743300483191782,0.0,-1.3346395041471276e-16,0.0,0.0,0.0,0.0,0.0,0.0,0.0,0.0,0.0,0.0,0.0,0.0,0.0,36.72000000000006,-0.3810152535105675,-0.052373029483535165,-9.238364160584303e-11,-0.08686442317318162,1.0474193694615056e-10,0.1922672860584204,0.0,-0.0743300483191782,0.0,-7.646921075906336e-15,0.0,0.0,1.0200000000000007
-3863.283482491559,0.0,0.0,0.0,-347695.51342424034,0.0,-3863.283482491559,2479338.7561463322,43093.55,60.94689747964199,-5820215.034807773,-8.41982790498687e-05,-10005708.914606927,-0.00046670553274452686,122229007.27651194,-0.0004999088123440742,43361.7109375,0.009138263761997223,-1958156.75,0.0,0.0,0.0,0.0,-0.36718643379420035,-0.686248743106719,-0.0009230748366098579,0.0003851505873916934,-1.4990692518123272e-12,-5.565186364090928e-12,-0.0830911272611367,-0.1859278983002755,9.734700475796598e-11,3.6301305373709376e-10,-1.1800517822611575e-16,-7.41748880670976e-16,0.6283185307179586,1.0000000000000007,1.4593204170673446,11.4,0.0,0.0,0.0,0.0,0.0,0.0,0.0,0.0,0.0,0.0,0.6597344572538578,-0.4021409719825418,0.0,-0.0008956143189152024,-1.7899734944628113e-12,-0.09273072671022042,1.1633917659288796e-10,0.18822649338790765,0.0,-0.07325961553854769,0.0,-1.5907675672329663e-16,0.0,0.0,0.0,0.0,0.0,0.0,0.0,0.0,0.0,0.0,0.0,0.0,0.0,37.800000000000075,-0.4021409719825418,-0.051314920545324834,-1.0255792667300271e-10,-0.09273072671022042,1.1633917659288796e-10,0.18822649338790765,0.0,-0.07325961553854769,0.0,-9.11442677887424e-15,0.0,0.0,1.0500000000000007
-3884.9639917356926,0.0,0.0,0.0,-349646.7592562123,0.0,-3884.9639917356926,2479338.7561463322,43093.55,60.94689747964199,-6012016.92195738,-9.255801735426583e-05,-9658207.059824668,-0.0005235983990132809,129785281.63934998,-0.0005555329844355583,48426.28125,0.009155012667179108,-1956379.625,0.0,0.0,0.0,0.0,-0.4021409719825418,-0.7117007142375634,-0.0008956143189152024,0.000717895021924446,-1.7899734944628113e-12,-6.070447459791742e-12,-0.09273072671022042,-0.19969299524446169,1.1633917659288796e-10,3.9666811953633036e-10,-1.5907675672329663e-16,-9.039592005809909e-16,0.6283185307179586,1.0500000000000007,1.4227986384410334,11.4,0.0,0.0,0.0,0.0,0.0,0.0,0.0,0.0,0.0,0.0,0.6785840131753967,-0.4237122061126483,0.0,-0.0008709121362173169,-1.9766140419988066e-12,-0.09884683856324444,1.2854193217350833e-10,0.18276262262370244,0.0,-0.07139972299721069,0.0,-1.8776254212741614e-16,0.0,0.0,0.0,0.0,0.0,0.0,0.0,0.0,0.0,0.0,0.0,0.0,0.0,38.88000000000008,-0.4237122061126483,-0.049899589731974905,-1.1325164233282607e-10,-0.09884683856324444,1.2854193217350833e-10,0.18276262262370244,0.0,-0.07139972299721069,0.0,-1.0758001214548267e-14,0.0,0.0,1.0800000000000007
-3909.5403903770675,0.0,0.0,0.0,-351858.6351339362,0.0,-3909.5403903770675,2479338.7561463322,43093.55,60.94689747964199,-6196066.546976536,-0.00010101539891082716,-9300083.047824841,-0.0005798728670924902,137152934.89153486,-0.0006105341017246246,53737.375,0.00917251780629158,-1954593.75,0.0,0.0,0.0,0.0,-0.43833294058238675,-0.7357388920615625,-0.0008508409117896882,0.00107731256146541,-2.1060597537646766e-12,-6.572423330161927e-12,-0.103064291763966,-0.2136897664612203,1.3701333407749878e-10,4.3029224761985165e-10,-2.0868377571236004e-16,-1.0831299569249891e-15,0.6283185307179586,1.1000000000000008,1.3847845408263946,11.4,0.0,0.0,0.0,0.0,0.0,0.0,0.0,0.0,0.0,0.0,0.6974335690969357,-0.44571354972373634,0.0,-0.0008396940658293511,-2.172284032307336e-12,-0.1052153240510576,1.4134986496203924e-10,0.17590346299182516,0.0,-0.06879163807463529,0.0,-2.197037903073642e-16,0.0,0.0,0.0,0.0,0.0,0.0,0.0,0.0,0.0,0.0,0.0,0.0,0.0,39.96000000000009,-0.44571354972373634,-0.04811092605420213,-1.2446270695487055e-10,-0.1052153240510576,1.4134986496203924e-10,0.17590346299182516,0.0,-0.06879163807463529,0.0,-1.2588099927639213e-14,0.0,0.0,1.1100000000000008
-3909.5403903770675,0.0,0.0,0.0,-351858.6351339362,0.0,-3909.5403903770675,2479338.7561463322,43093.55,60.94689747964199,-6196066.546976536,-0.00010101539891082716,-9300083.047824841,-0.0005798728670924902,137152934.89153486,-0.0006105341017246246,53737.375,0.00917251780629158,-1954593.75,0.0,0.0,0.0,0.0,-0.43833294058238675,-0.7357388920615625,-0.0008508409117896882,0.00107731256146541,-2.1060597537646766e-12,-6.572423330161927e-12,-0.103064291763966,-0.2136897664612203,1.3701333407749878e-10,4.3029224761985165e-10,-2.0868377571236004e-16,-1.0831299569249891e-15,0.6283185307179586,1.1000000000000008,1.3847845408263946,11.4,0.0,0.0,0.0,0.0,0.0,0.0,0.0,0.0,0.0,0.0,0.7162831250184746,-0.46812933188582156,0.0,-0.0008016908573048341,-2.3769450005614454e-12,-0.11183882133730463,1.5476259909838742e-10,0.16778541094352373,0.0,-0.06560340084015927,0.0,-2.5508112422309304e-16,0.0,0.0,0.0,0.0,0.0,0.0,0.0,0.0,0.0,0.0,0.0,0.0,0.0,41.0400000000001,-0.46812933188582156,-0.04593350259779171,-1.3618891666689192e-10,-0.11183882133730463,1.5476259909838742e-10,0.16778541094352373,0.0,-0.06560340084015927,0.0,-1.46150718514355e-14,0.0,0.0,1.1400000000000008
-3936.7675620206373,0.0,0.0,0.0,-354309.08058185753,0.0,-3936.7675620206373,2479338.7561463322,43093.55,60.94689747964199,-6372192.446333013,-0.00010956536123647336,-8931948.431796692,-0.0006349361501634121,144323650.58920145,-0.0006644288077950478,59287.46875,0.009188652038574219,-1952808.0,0.0,0.0,0.0,0.0,-0.4756906113074353,-0.7583221637316028,-0.0007874701257229338,0.0014615329282249593,-2.4471562913577237e-12,-7.070794669896373e-12,-0.11410377843913726,-0.22793023883990032,1.5936783590277198e-10,4.6388036060031977e-10,-2.676680409298857e-16,-1.2789907646008888e-15,0.6283185307179586,1.1500000000000008,1.3453179957541996,11.4,0.0,0.0,0.0,0.0,0.0,0.0,0.0,0.0,0.0,0.0,0.7351326809400135,-0.4909436270781035,0.0,-0.0007566422442080347,-2.590555841193589e-12,-0.11871995243605209,1.6877968920512175e-10,0.15857864136396133,0.0,-0.062039801040271327,0.0,-2.940728496953247e-16,0.0,0.0,0.0,0.0,0.0,0.0,0.0,0.0,0.0,0.0,0.0,0.0,0.0,42.12000000000011,-0.4909436270781035,-0.04335240719442735,-1.484279162933554e-10,-0.11871995243605209,1.6877968920512175e-10,0.15857864136396133,0.0,-0.062039801040271327,0.0,-1.6849133156927122e-14,0.0,0.0,1.1700000000000008
-3936.7675620206373,0.0,0.0,0.0,-354309.08058185753,0.0,-3936.7675620206373,2479338.7561463322,43093.55,60.94689747964199,-6372192.446333013,-0.00010956536123647336,-8931948.431796692,-0.0006349361501634121,144323650.58920145,-0.0006644288077950478,59287.46875,0.009188652038574219,-1952808.0,0.0,0.0,0.0,0.0,-0.4756906113074353,-0.7583221637316028,-0.0007874701257229338,0.0014615329282249593,-2.4471562913577237e-12,-7.070794669896373e-12,-0.11410377843913726,-0.22793023883990032,1.5936783590277198e-10,4.6388036060031977e-10,-2.676680409298857e-16,-1.2789907646008888e-15,0.6283185307179586,1.1500000000000008,1.3453179957541996,11.4,0.0,0.0,0.0,0.0,0.0,0.0,0.0,0.0,0.0,0.0,0.7539822368615524,-0.5141402654571565,0.0,-0.0007042943360453861,-2.813072639556157e-12,-0.1258612416448336,1.834006093368383e-10,0.14841363138126376,0.0,-0.05825357439561314,0.0,-3.3685464085590816e-16,0.0,0.0,0.0,0.0,0.0,0.0,0.0,0.0,0.0,0.0,0.0,0.0,0.0,43.20000000000012,-0.5141402654571565,-0.040353092990369155,-1.6117718971029408e-10,-0.1258612416448336,1.834006093368383e-10,0.14841363138126376,0.0,-0.05825357439561314,0.0,-1.9300349230438647e-14,0.0,0.0,1.2000000000000008
-3966.509550991532,0.0,0.0,0.0,-356985.8595892379,0.0,-3966.509550991532,2479338.7561463322,43093.55,60.94689747964199,-6540242.919951392,-0.00011819939611685793,-8554425.06921518,-0.0006882572779431939,151289428.639706,-0.0007169265300035477,65063.5390625,0.00920262560248375,-1951030.75,0.0,0.0,0.0,0.0,-0.5141402654571565,-0.7794120337808607,-0.0007042943360453861,0.0018693630215687305,-2.813072639556157e-12,-7.565143296367288e-12,-0.1258612416448336,-0.24240583708889588,1.834006093368383e-10,4.974210270572103e-10,-3.3685464085590816e-16,-1.4911555121542624e-15,0.6283185307179586,1.2000000000000008,1.3044403981717194,11.4,0.0,0.0,0.0,0.0,0.0,0.0,0.0,0.0,0.0,0.0,0.7728317927830913,-0.537702843236735,0.0,-0.0006443984159366285,-3.0444486629027833e-12,-0.1332650731387322,1.9862475259025842e-10,0.13733841022386634,0.0,-0.054293392486861984,0.0,-3.8359909286094644e-16,0.0,0.0,0.0,0.0,0.0,0.0,0.0,0.0,0.0,0.0,0.0,0.0,0.0,44.28000000000013,-0.537702843236735,-0.03692130955808458,-1.7443405932857616e-10,-0.1332650731387322,1.9862475259025842e-10,0.13733841022386634,0.0,-0.054293392486861984,0.0,-2.1978609045979177e-14,0.0,0.0,1.2300000000000009
-3998.6887126571546,0.0,0.0,0.0,-359881.98413914384,0.0,-3998.6887126571546,2479338.7561463322,43093.55,60.94689747964199,-6700084.12278689,-0.00012690704458930883,-8168144.787349105,-0.0007392140105366707,158042608.92105234,-0.000767895020544529,71048.40625,0.009214434772729874,-1949271.0,0.0,0.0,0.0,0.0,-0.5536063259885032,-0.7989726719489831,-0.0006001541627103757,0.0022999615553936916,-3.2035967897600234e-12,-8.055035242802731e-12,-0.13834793362906034,-0.25709599013624307,2.0910896947846294e-10,5.309018098245731e-10,-4.170473310019586e-16,-1.7191499693506625e-15,0.6283185307179586,1.2500000000000009,1.2621946230251486,11.4,0.0,0.0,0.0,0.0,0.0,0.0,0.0,0.0,0.0,0.0,0.7916813487046302,-0.5616147331863013,0.0,-0.0005767114490366528,-3.284634372082678e-12,-0.14093369822368312,2.1445143187982438e-10,0.12531858004620905,0.0,-0.05010341228501869,0.0,-4.344755806619931e-16,0.0,0.0,0.0,0.0,0.0,0.0,0.0,0.0,0.0,0.0,0.0,0.0,0.0,45.360000000000134,-0.5616147331863013,-0.03304313202667427,-1.8819568676394075e-10,-0.14093369822368312,2.1445143187982438e-10,0.12531858004620905,0.0,-0.05010341228501869,0.0,-2.4893617073427972e-14,0.0,0.0,1.260000000000001
-3998.6887126571546,0.0,0.0,0.0,-359881.98413914384,0.0,-3998.6887126571546,2479338.7561463322,43093.55,60.94689747964199,-6700084.12278689,-0.00012690704458930883,-8168144.787349105,-0.0007392140105366707,158042608.92105234,-0.000767895020544529,71048.40625,0.009214434772729874,-1949271.0,0.0,0.0,0.0,0.0,-0.5536063259885032,-0.7989726719489831,-0.0006001541627103757,0.0022999615553936916,-3.2035967897600234e-12,-8.055035242802731e-12,-0.13834793362906034,-0.25709599013624307,2.0910896947846294e-10,5.309018098245731e-10,-4.170473310019586e-16,-1.7191499693506625e-15,0.6283185307179586,1.2500000000000009,1.2621946230251486,11.4,0.0,0.0,0.0,0.0,0.0,0.0,0.0,0.0,0.0,0.0,0.8105309046261692,-0.5858590952196148,0.0,-0.0005009978571747679,-3.533577392261213e-12,-0.14886928085697126,2.3087987779080559e-10,0.11227288455243939,0.0,-0.045565892151767644,0.0,-4.896498934404576e-16,0.0,0.0,0.0,0.0,0.0,0.0,0.0,0.0,0.0,0.0,0.0,0.0,0.0,46.44000000000015,-0.5858590952196148,-0.02870506276121221,-2.0245907115941087e-10,-0.14886928085697126,2.3087987779080559e-10,0.11227288455243939,0.0,-0.045565892151767644,0.0,-2.8054872333168712e-14,0.0,0.0,1.290000000000001
-4033.186473227856,0.0,0.0,0.0,-362986.78259050706,0.0,-4033.186473227856,2479338.7561463322,43093.55,60.94689747964199,-6851595.982691015,-0.00013567712421202067,-7773750.232362014,-0.0007872798014432192,164575958.107465,-0.0008169738575816154,77225.2421875,0.009224053472280502,-1947536.25,0.0,0.0,0.0,0.0,-0.5940114919609895,-0.8169709600100347,-0.00047393692909718287,0.0027522164798718736,-3.6184950114546807e-12,-8.540034335845766e-12,-0.15157416785048558,-0.27198628978645695,2.364896078106349e-10,5.643101126756052e-10,-5.090245064370435e-16,-1.9624358301908136e-15,0.6283185307179586,1.300000000000001,1.2186249802897184,11.4,0.0,0.0,0.0,0.0,0.0,0.0,0.0,0.0,0.0,0.0,0.8293804605477081,-0.6104188871033828,0.0,-0.00041703167080422174,-3.79122254141898e-12,-0.15707395642247807,2.479092406163456e-10,0.09812398346698145,0.0,-0.04056245369630489,0.0,-5.492839573684381e-16,0.0,0.0,0.0,0.0,0.0,0.0,0.0,0.0,0.0,0.0,0.0,0.0,0.0,47.52000000000016,-0.6104188871033828,-0.023894154660371023,-2.1722105081816946e-10,-0.15707395642247807,2.479092406163456e-10,0.09812398346698145,0.0,-0.04056245369630489,0.0,-3.147165251145534e-14,0.0,0.0,1.320000000000001
-4033.186473227856,0.0,0.0,0.0,-362986.78259050706,0.0,-4033.186473227856,2479338.7561463322,43093.55,60.94689747964199,-6851595.982691015,-0.00013567712421202067,-7773750.232362014,-0.0007872798014432192,164575958.107465,-0.0008169738575816154,77225.2421875,0.009224053472280502,-1947536.25,0.0,0.0,0.0,0.0,-0.5940114919609895,-0.8169709600100347,-0.00047393692909718287,0.0027522164798718736,-3.6184950114546807e-12,-8.540034335845766e-12,-0.15157416785048558,-0.27198628978645695,2.364896078106349e-10,5.643101126756052e-10,-5.090245064370435e-16,-1.9624358301908136e-15,0.6283185307179586,1.300000000000001,1.2186249802897184,11.4,0.0,0.0,0.0,0.0,0.0,0.0,0.0,0.0,0.0,0.0,0.848230016469247,-0.6352768752611406,0.0,-0.00032459815795164476,-4.057511860715607e-12,-0.16554987749709923,2.655385919888411e-10,0.08284137316156909,0.0,-0.0350261577132205,0.0,-6.135356829638946e-16,0.0,0.0,0.0,0.0,0.0,0.0,0.0,0.0,0.0,0.0,0.0,0.0,0.0,48.600000000000165,-0.6352768752611406,-0.018598104488350108,-2.3247830494327783e-10,-0.16554987749709923,2.655385919888411e-10,0.08284137316156909,0.0,-0.0350261577132205,0.0,-3.5153005214507684e-14,0.0,0.0,1.350000000000001
-4069.8076521117405,0.0,0.0,0.0,-366282.6886900565,0.0,-4069.8076521117405,2479338.7561463322,43093.55,60.94689747964199,-6994670.460304992,-0.00014449874445232337,-7371893.947413627,-0.0008319885819219053,170882719.5466368,-0.0008639795705676079,83579.875,0.009231582283973694,-1945834.5,0.0,0.0,0.0,0.0,-0.6352768752611406,-0.8333765368773711,-0.00032459815795164476,0.0032245264364077634,-4.057511860715607e-12,-9.01970994749533e-12,-0.16554987749709923,-0.2870756659625705,2.655385919888411e-10,5.976336841513789e-10,-6.135356829638946e-16,-2.2204036081662696e-15,0.6283185307179586,1.350000000000001,1.1737771684946596,11.4,0.0,0.0,0.0,0.0,0.0,0.0,0.0,0.0,0.0,0.0,0.8670795723907859,-0.6604156456621324,0.0,-0.000223494383335809,-4.332384626850973e-12,-0.1742992298921057,2.8376692554164236e-10,0.06646042363389179,0.0,-0.02896493787679654,0.0,-6.825585952488636e-16,0.0,0.0,0.0,0.0,0.0,0.0,0.0,0.0,0.0,0.0,0.0,0.0,0.0,49.68000000000018,-0.6604156456621324,-0.012805284910020814,-2.4822735434592077e-10,-0.1742992298921057,2.8376692554164236e-10,0.06646042363389179,0.0,-0.02896493787679654,0.0,-3.9107726778138085e-14,0.0,0.0,1.380000000000001
-4108.327988170087,0.0,0.0,0.0,-369749.51893530774,0.0,-4108.327988170087,2479338.7561463322,43093.55,60.94689747964199,-7129213.116959954,-0.0001533613545085157,-6963235.30197539,-0.0008727328386157751,176956586.0740454,-0.000908765010535717,90099.265625,0.009236890822649002,-1944172.625,0.0,0.0,0.0,0.0,-0.6773221394742628,-0.8481618366113368,-0.0001511799694904297,0.003715104027027819,-4.520370458725941e-12,-9.493632626705554e-12,-0.18028512615569797,-0.3023682915286408,2.962513820761134e-10,6.308603056357186e-10,-7.312983327139006e-16,-2.4923798628261614e-15,0.6283185307179586,1.400000000000001,1.1276982267917672,11.4,0.0,0.0,0.0,0.0,0.0,0.0,0.0,0.0,0.0,0.0,0.8859291283123248,-0.6858176147567441,0.0,-0.0001135286653170093,-4.6157773021433344e-12,-0.18332421692926337,3.0259315366013386e-10,0.04907380862246555,0.0,-0.022451742121775264,0.0,-7.565017643219316e-16,0.0,0.0,0.0,0.0,0.0,0.0,0.0,0.0,0.0,0.0,0.0,0.0,0.0,50.76000000000018,-0.6858176147567441,-0.006504713376417882,-2.6446455858509446e-10,-0.18332421692926337,3.0259315366013386e-10,0.04907380862246555,0.0,-0.022451742121775264,0.0,-4.334435828984716e-14,0.0,0.0,1.410000000000001
-4108.327988170087,0.0,0.0,0.0,-369749.51893530774,0.0,-4108.327988170087,2479338.7561463322,43093.55,60.94689747964199,-7129213.116959954,-0.0001533613545085157,-6963235.30197539,-0.0008727328386157751,176956586.0740454,-0.000908765010535717,90099.265625,0.009236890822649002,-1944172.625,0.0,0.0,0.0,0.0,-0.6773221394742628,-0.8481618366113368,-0.0001511799694904297,0.003715104027027819,-4.520370458725941e-12,-9.493632626705554e-12,-0.18028512615569797,-0.3023682915286408,2.962513820761134e-10,6.308603056357186e-10,-7.312983327139006e-16,-2.4923798628261614e-15,0.6283185307179586,1.400000000000001,1.1276982267917672,11.4,0.0,0.0,0.0,0.0,0.0,0.0,0.0,0.0,0.0,0.0,0.9047786842338638,-0.7114650404905988,0.0,5.480660273492343e-06,-4.907623536462468e-12,-0.19262702295313672,3.220161071005892e-10,0.030803343927327486,0.0,-0.015590922549356359,0.0,-8.355096544147857e-16,0.0,0.0,0.0,0.0,0.0,0.0,0.0,0.0,0.0,0.0,0.0,0.0,0.0,51.840000000000195,-0.7114650404905988,0.00031401870261612674,-2.8118611607836693e-10,-0.19262702295313672,3.220161071005892e-10,0.030803343927327486,0.0,-0.015590922549356359,0.0,-4.787117694040117e-14,0.0,0.0,1.440000000000001
-4148.557295624648,0.0,0.0,0.0,-373370.1566062184,0.0,-4148.557295624648,2479338.7561463322,43093.55,60.94689747964199,-7255145.389743039,-0.00016225431686278256,-6548437.185469912,-0.0009090854582609609,182791641.13358194,-0.0009511783719062805,96768.359375,0.00923999398946762,-1942557.875,0.0,0.0,0.0,0.0,-0.7200656403399494,-0.8613021153428044,4.719025148242881e-05,0.004222373212413689,-5.0067723167383586e-12,-9.961369456543153e-12,-0.19579006554750078,-0.3178621109572572,3.28622817097832e-10,6.639774726424555e-10,-8.629953816808475e-16,-2.777654518113645e-15,0.6283185307179586,1.450000000000001,1.0804364856178343,11.4,0.0,0.0,0.0,0.0,0.0,0.0,0.0,0.0,0.0,0.0,0.9236282401554027,-0.7373400333359263,0.0,0.00013370655783805373,-5.207854202222477e-12,-0.2022097734958371,3.4203453715093863e-10,0.011766785204229576,0.0,-0.008478376252440656,0.0,-9.197217804987464e-16,0.0,0.0,0.0,0.0,0.0,0.0,0.0,0.0,0.0,0.0,0.0,0.0,0.0,52.92000000000021,-0.7373400333359263,0.007660821457342315,-2.983880661068183e-10,-0.2022097734958371,3.4203453715093863e-10,0.011766785204229576,0.0,-0.008478376252440656,0.0,-5.2696176348835674e-14,0.0,0.0,1.470000000000001
-4148.557295624648,0.0,0.0,0.0,-373370.1566062184,0.0,-4148.557295624648,2479338.7561463322,43093.55,60.94689747964199,-7255145.389743039,-0.00016225431686278256,-6548437.185469912,-0.0009090854582609609,182791641.13358194,-0.0009511783719062805,96768.359375,0.00923999398946762,-1942557.875,0.0,0.0,0.0,0.0,-0.7200656403399494,-0.8613021153428044,4.719025148242881e-05,0.004222373212413689,-5.0067723167383586e-12,-9.961369456543153e-12,-0.19579006554750078,-0.3178621109572572,3.28622817097832e-10,6.639774726424555e-10,-8.629953816808475e-16,-2.777654518113645e-15,0.6283185307179586,1.450000000000001,1.0804364856178343,11.4,0.0,0.0,0.0,0.0,0.0,0.0,0.0,0.0,0.0,0.0,0.9424777960769416,-0.7634245673682165,0.0,0.00027131415718126045,-5.516397256754593e-12,-0.21207450784061185,3.6264710641984426e-10,-0.007946288040311285,0.0,-0.0011725113869261454,0.0,-1.0092726120743982e-15,0.0,0.0,0.0,0.0,0.0,0.0,0.0,0.0,0.0,0.0,0.0,0.0,0.0,54.000000000000206,-0.7634245673682165,0.01554515612863526,-3.1606628092958335e-10,-0.21207450784061185,3.6264710641984426e-10,-0.007946288040311285,0.0,-0.0011725113869261454,0.0,-5.782706105000739e-14,0.0,0.0,1.500000000000001
