dof_B1E1,dof_B1F1,dof_B1F2,dof_B2E1,dof_B2F1,dof_B2F2,dof_B3E1,dof_B3F1,dof_B3F2,dof_DrTr,dof_GenAz,dof_Heave,dof_NacYaw,dof_Pitch,dof_Roll,dof_Surge,dof_Sway,dof_TwrFA1,dof_TwrFA2,dof_TwrSS1,dof_TwrSS2,dof_Yaw,env_AeroThrust,env_GenPower,env_GenTorque,env_PitchCmd,env_Time,env_WaveElev,env_WindSpeed,env_wave_elev,env_wind_speed,gen_torque,moor_Fx,moor_Fy,moor_Fz,moor_Mx,moor_My,moor_Mz,moor_Time,qB1E1,qB1F1,qB1F2,qB2E1,qB2F1,qB2F2,qB3E1,qB3F1,qB3F2,qDrTr,qGeAz,qHv,qP,qR,qSg,qSw,qTFA1,qTFA2,qTSS1,qTSS2,qY,qyaw,thrust,time
0.0,0.0,0.0,0.0,0.0,0.0,0.0,0.0,0.0,0.0,0.006283185307179587,-0.0018631162320600367,0.0,-0.000639397170092121,-1.418336572706623e-20,0.0052920021025274966,-6.169319342084162e-19,0.12750801062069964,0.0,-0.07960163705036187,0.0,-1.9370901837434508e-22,-4065.6260063319733,2479338.7561463322,43093.55,0.0,0.0,1.83,11.4,1.83,11.4,43093.55,0.0,0.0,0.0,0.0,0.0,0.0,0.0,0.0,0.0,0.0,0.0,0.0,0.0,0.0,0.0,0.0,0.0,0.36,-0.0018631162320600367,-0.036634759278886965,-8.126469954513954e-19,0.0052920021025274966,-6.169319342084162e-19,0.12750801062069964,0.0,-0.07960163705036187,0.0,-1.109870920647209e-20,0.0,-4065.6260063319733,0.01
0.0,0.0,0.0,0.0,0.0,0.0,0.0,0.0,0.0,0.0,0.012566370614359173,5.191891541446366,0.0,-230.44846978843444,3.509322729932665e-16,2169.4618035572057,1.5528994692597152e-14,44311.10688570883,0.0,-27236.56142740953,0.0,1.5766280862771673e-18,-22854.632379140476,2479338.7561463322,43093.55,0.0,0.01,1.8299616084404755,11.4,1.8299616084404755,11.4,43093.55,0.0,0.0,0.0,0.0,0.0,0.0,0.01,0.0,0.0,0.0,0.0,0.0,0.0,0.0,0.0,0.0,0.0,0.72,5.191891541446366,-13203.724714125352,2.010693813744701e-14,2169.4618035572057,1.5528994692597152e-14,44311.10688570883,0.0,-27236.56142740953,0.0,9.033413520546951e-17,0.0,-22854.632379140476,0.02
0.0,0.0,0.0,0.0,0.0,0.0,0.0,0.0,0.0,0.0,0.01884955592153876,4.173501142172322e+90,0.0,-2.5452407728720998e+91,3.2853314602720863e+72,2.3287845785710187e+92,1.83653855490549e+74,4.944375037529055e+93,0.0,-3.0551308518779973e+93,0.0,3.280399826786876e+70,-1.9035141135720294e+27,2479338.7561463322,43093.55,0.0,0.02,1.8298464353727346,11.4,1.8298464353727346,11.4,43093.55,-83382132902.376,-1.430511474609375e-06,-1740891112.966489,6.008148193359375e-05,-670152943666.2866,-0.0003662109375,0.02,0.0,0.0,0.0,0.0,0.0,0.0,0.0,0.0,0.0,0.0,1.08,4.173501142172322e+90,-1.4583155413018708e+93,1.8823562697514225e+74,2.3287845785710187e+92,1.83653855490549e+74,4.944375037529055e+93,0.0,-3.0551308518779973e+93,0.0,1.879530651903343e+72,0.0,-1.9035141135720294e+27,0.03
0.0,0.0,0.0,0.0,0.0,0.0,0.0,0.0,0.0,0.0,0.025132741228718346,nan,0.0,nan,nan,nan,nan,nan,0.0,nan,0.0,nan,nan,2479338.7561463322,43093.55,0.0,0.03,1.8296544856292076,11.4,1.8296544856292076,11.4,43093.55,0.0,0.0,0.0,0.0,0.0,0.0,0.03,0.0,0.0,0.0,0.0,0.0,0.0,0.0,0.0,0.0,0.0,1.44,nan,nan,nan,nan,nan,nan,0.0,nan,0.0,nan,0.0,nan,0.04
0.0,0.0,0.0,0.0,0.0,0.0,0.0,0.0,0.0,0.0,0.031415926535897934,nan,0.0,nan,nan,nan,nan,nan,0.0,nan,0.0,nan,nan,2479338.7561463322,43093.55,0.0,0.04,1.8293857672637197,11.4,1.8293857672637197,11.4,43093.55,0.0,0.0,0.0,0.0,0.0,0.0,0.04,0.0,0.0,0.0,0.0,0.0,0.0,0.0,0.0,0.0,0.0,1.8000000000000003,nan,nan,nan,nan,nan,nan,0.0,nan,0.0,nan,0.0,nan,0.05
0.0,0.0,0.0,0.0,0.0,0.0,0.0,0.0,0.0,0.0,0.03769911184307752,nan,0.0,nan,nan,nan,nan,nan,0.0,nan,0.0,nan,nan,2479338.7561463322,43093.55,0.0,0.05,1.8290402915511532,11.4,1.8290402915511532,11.4,43093.55,0.0,0.0,0.0,0.0,0.0,0.0,0.05,0.0,0.0,0.0,0.0,0.0,0.0,0.0,0.0,0.0,0.0,2.16,nan,nan,nan,nan,nan,nan,0.0,nan,0.0,nan,0.0,nan,0.060000000000000005
0.0,0.0,0.0,0.0,0.0,0.0,0.0,0.0,0.0,0.0,0.0439822971502571,nan,0.0,nan,nan,nan,nan,nan,0.0,nan,0.0,nan,nan,2479338.7561463322,43093.55,0.0,0.060000000000000005,1.8286180729869734,11.4,1.8286180729869734,11.4,43093.55,0.0,0.0,0.0,0.0,0.0,0.0,0.060000000000000005,0.0,0.0,0.0,0.0,0.0,0.0,0.0,0.0,0.0,0.0,2.52,nan,nan,nan,nan,nan,nan,0.0,nan,0.0,nan,0.0,nan,0.07
0.0,0.0,0.0,0.0,0.0,0.0,0.0,0.0,0.0,0.0,0.050265482457436686,nan,0.0,nan,nan,nan,nan,nan,0.0,nan,0.0,nan,nan,2479338.7561463322,43093.55,0.0,0.07,1.8281191292866226,11.4,1.8281191292866226,11.4,43093.55,0.0,0.0,0.0,0.0,0.0,0.0,0.07,0.0,0.0,0.0,0.0,0.0,0.0,0.0,0.0,0.0,0.0,2.8799999999999994,nan,nan,nan,nan,nan,nan,0.0,nan,0.0,nan,0.0,nan,0.08
0.0,0.0,0.0,0.0,0.0,0.0,0.0,0.0,0.0,0.0,0.05654866776461627,nan,0.0,nan,nan,nan,nan,nan,0.0,nan,0.0,nan,nan,2479338.7561463322,43093.55,0.0,0.08,1.8275434813847746,11.4,1.8275434813847746,11.4,43093.55,0.0,0.0,0.0,0.0,0.0,0.0,0.08,0.0,0.0,0.0,0.0,0.0,0.0,0.0,0.0,0.0,0.0,3.2399999999999998,nan,nan,nan,nan,nan,nan,0.0,nan,0.0,nan,0.0,nan,0.09
0.0,0.0,0.0,0.0,0.0,0.0,0.0,0.0,0.0,0.0,0.06283185307179585,nan,0.0,nan,nan,nan,nan,nan,0.0,nan,0.0,nan,nan,2479338.7561463322,43093.55,0.0,0.09,1.8268911534344576,11.4,1.8268911534344576,11.4,43093.55,0.0,0.0,0.0,0.0,0.0,0.0,0.09,0.0,0.0,0.0,0.0,0.0,0.0,0.0,0.0,0.0,0.0,3.5999999999999996,nan,nan,nan,nan,nan,nan,0.0,nan,0.0,nan,0.0,nan,0.09999999999999999
0.0,0.0,0.0,0.0,0.0,0.0,0.0,0.0,0.0,0.0,0.06911503837897544,nan,0.0,nan,nan,nan,nan,nan,0.0,nan,0.0,nan,nan,2479338.7561463322,43093.55,0.0,0.09999999999999999,1.8261621728060402,11.4,1.8261621728060402,11.4,43093.55,0.0,0.0,0.0,0.0,0.0,0.0,0.09999999999999999,0.0,0.0,0.0,0.0,0.0,0.0,0.0,0.0,0.0,0.0,3.9599999999999995,nan,nan,nan,nan,nan,nan,0.0,nan,0.0,nan,0.0,nan,0.10999999999999999
0.0,0.0,0.0,0.0,0.0,0.0,0.0,0.0,0.0,0.0,0.07539822368615502,nan,0.0,nan,nan,nan,nan,nan,0.0,nan,0.0,nan,nan,2479338.7561463322,43093.55,0.0,0.10999999999999999,1.8253565700860834,11.4,1.8253565700860834,11.4,43093.55,0.0,0.0,0.0,0.0,0.0,0.0,0.10999999999999999,0.0,0.0,0.0,0.0,0.0,0.0,0.0,0.0,0.0,0.0,4.319999999999999,nan,nan,nan,nan,nan,nan,0.0,nan,0.0,nan,0.0,nan,0.11999999999999998
0.0,0.0,0.0,0.0,0.0,0.0,0.0,0.0,0.0,0.0,0.0816814089933346,nan,0.0,nan,nan,nan,nan,nan,0.0,nan,0.0,nan,nan,2479338.7561463322,43093.55,0.0,0.11999999999999998,1.824474379076057,11.4,1.824474379076057,11.4,43093.55,0.0,0.0,0.0,0.0,0.0,0.0,0.11999999999999998,0.0,0.0,0.0,0.0,0.0,0.0,0.0,0.0,0.0,0.0,4.679999999999999,nan,nan,nan,nan,nan,nan,0.0,nan,0.0,nan,0.0,nan,0.12999999999999998
0.0,0.0,0.0,0.0,0.0,0.0,0.0,0.0,0.0,0.0,0.08796459430051419,nan,0.0,nan,nan,nan,nan,nan,0.0,nan,0.0,nan,nan,2479338.7561463322,43093.55,0.0,0.12999999999999998,1.8235156367909207,11.4,1.8235156367909207,11.4,43093.55,0.0,0.0,0.0,0.0,0.0,0.0,0.12999999999999998,0.0,0.0,0.0,0.0,0.0,0.0,0.0,0.0,0.0,0.0,5.039999999999999,nan,nan,nan,nan,nan,nan,0.0,nan,0.0,nan,0.0,nan,0.13999999999999999
0.0,0.0,0.0,0.0,0.0,0.0,0.0,0.0,0.0,0.0,0.09424777960769377,nan,0.0,nan,nan,nan,nan,nan,0.0,nan,0.0,nan,nan,2479338.7561463322,43093.55,0.0,0.13999999999999999,1.8224803834575727,11.4,1.8224803834575727,11.4,43093.55,0.0,0.0,0.0,0.0,0.0,0.0,0.13999999999999999,0.0,0.0,0.0,0.0,0.0,0.0,0.0,0.0,0.0,0.0,5.399999999999999,nan,nan,nan,nan,nan,nan,0.0,nan,0.0,nan,0.0,nan,0.15
0.0,0.0,0.0,0.0,0.0,0.0,0.0,0.0,0.0,0.0,0.10053096491487336,nan,0.0,nan,nan,nan,nan,nan,0.0,nan,0.0,nan,nan,2479338.7561463322,43093.55,0.0,0.15,1.8213686625131607,11.4,1.8213686625131607,11.4,43093.55,0.0,0.0,0.0,0.0,0.0,0.0,0.15,0.0,0.0,0.0,0.0,0.0,0.0,0.0,0.0,0.0,0.0,5.759999999999999,nan,nan,nan,nan,nan,nan,0.0,nan,0.0,nan,0.0,nan,0.16
0.0,0.0,0.0,0.0,0.0,0.0,0.0,0.0,0.0,0.0,0.10681415022205294,nan,0.0,nan,nan,nan,nan,nan,0.0,nan,0.0,nan,nan,2479338.7561463322,43093.55,0.0,0.16,1.8201805206032593,11.4,1.8201805206032593,11.4,43093.55,0.0,0.0,0.0,0.0,0.0,0.0,0.16,0.0,0.0,0.0,0.0,0.0,0.0,0.0,0.0,0.0,0.0,6.119999999999998,nan,nan,nan,nan,nan,nan,0.0,nan,0.0,nan,0.0,nan,0.17
0.0,0.0,0.0,0.0,0.0,0.0,0.0,0.0,0.0,0.0,0.11309733552923253,nan,0.0,nan,nan,nan,nan,nan,0.0,nan,0.0,nan,nan,2479338.7561463322,43093.55,0.0,0.17,1.8189160075799127,11.4,1.8189160075799127,11.4,43093.55,0.0,0.0,0.0,0.0,0.0,0.0,0.17,0.0,0.0,0.0,0.0,0.0,0.0,0.0,0.0,0.0,0.0,6.479999999999999,nan,nan,nan,nan,nan,nan,0.0,nan,0.0,nan,0.0,nan,0.18000000000000002
0.0,0.0,0.0,0.0,0.0,0.0,0.0,0.0,0.0,0.0,0.11938052083641211,nan,0.0,nan,nan,nan,nan,nan,0.0,nan,0.0,nan,nan,2479338.7561463322,43093.55,0.0,0.18000000000000002,1.8175751764995443,11.4,1.8175751764995443,11.4,43093.55,0.0,0.0,0.0,0.0,0.0,0.0,0.18000000000000002,0.0,0.0,0.0,0.0,0.0,0.0,0.0,0.0,0.0,0.0,6.839999999999999,nan,nan,nan,nan,nan,nan,0.0,nan,0.0,nan,0.0,nan,0.19000000000000003
0.0,0.0,0.0,0.0,0.0,0.0,0.0,0.0,0.0,0.0,0.1256637061435917,nan,0.0,nan,nan,nan,nan,nan,0.0,nan,0.0,nan,nan,2479338.7561463322,43093.55,0.0,0.19000000000000003,1.8161580836207292,11.4,1.8161580836207292,11.4,43093.55,0.0,0.0,0.0,0.0,0.0,0.0,0.19000000000000003,0.0,0.0,0.0,0.0,0.0,0.0,0.0,0.0,0.0,0.0,7.199999999999999,nan,nan,nan,nan,nan,nan,0.0,nan,0.0,nan,0.0,nan,0.20000000000000004
0.0,0.0,0.0,0.0,0.0,0.0,0.0,0.0,0.0,0.0,0.1319468914507713,nan,0.0,nan,nan,nan,nan,nan,0.0,nan,0.0,nan,nan,2479338.7561463322,43093.55,0.0,0.20000000000000004,1.8146647884018339,11.4,1.8146647884018339,11.4,43093.55,0.0,0.0,0.0,0.0,0.0,0.0,0.20000000000000004,0.0,0.0,0.0,0.0,0.0,0.0,0.0,0.0,0.0,0.0,7.559999999999999,nan,nan,nan,nan,nan,nan,0.0,nan,0.0,nan,0.0,nan,0.21000000000000005
0.0,0.0,0.0,0.0,0.0,0.0,0.0,0.0,0.0,0.0,0.13823007675795088,nan,0.0,nan,nan,nan,nan,nan,0.0,nan,0.0,nan,nan,2479338.7561463322,43093.55,0.0,0.21000000000000005,1.8130953534985224,11.4,1.8130953534985224,11.4,43093.55,0.0,0.0,0.0,0.0,0.0,0.0,0.21000000000000005,0.0,0.0,0.0,0.0,0.0,0.0,0.0,0.0,0.0,0.0,7.919999999999999,nan,nan,nan,nan,nan,nan,0.0,nan,0.0,nan,0.0,nan,0.22000000000000006
0.0,0.0,0.0,0.0,0.0,0.0,0.0,0.0,0.0,0.0,0.14451326206513046,nan,0.0,nan,nan,nan,nan,nan,0.0,nan,0.0,nan,nan,2479338.7561463322,43093.55,0.0,0.22000000000000006,1.8114498447611265,11.4,1.8114498447611265,11.4,43093.55,0.0,0.0,0.0,0.0,0.0,0.0,0.22000000000000006,0.0,0.0,0.0,0.0,0.0,0.0,0.0,0.0,0.0,0.0,8.279999999999998,nan,nan,nan,nan,nan,nan,0.0,nan,0.0,nan,0.0,nan,0.23000000000000007
0.0,0.0,0.0,0.0,0.0,0.0,0.0,0.0,0.0,0.0,0.15079644737231004,nan,0.0,nan,nan,nan,nan,nan,0.0,nan,0.0,nan,nan,2479338.7561463322,43093.55,0.0,0.23000000000000007,1.8097283312318826,11.4,1.8097283312318826,11.4,43093.55,0.0,0.0,0.0,0.0,0.0,0.0,0.23000000000000007,0.0,0.0,0.0,0.0,0.0,0.0,0.0,0.0,0.0,0.0,8.639999999999999,nan,nan,nan,nan,nan,nan,0.0,nan,0.0,nan,0.0,nan,0.24000000000000007
0.0,0.0,0.0,0.0,0.0,0.0,0.0,0.0,0.0,0.0,0.15707963267948963,nan,0.0,nan,nan,nan,nan,nan,0.0,nan,0.0,nan,nan,2479338.7561463322,43093.55,0.0,0.24000000000000007,1.807930885142036,11.4,1.807930885142036,11.4,43093.55,0.0,0.0,0.0,0.0,0.0,0.0,0.24000000000000007,0.0,0.0,0.0,0.0,0.0,0.0,0.0,0.0,0.0,0.0,8.999999999999998,nan,nan,nan,nan,nan,nan,0.0,nan,0.0,nan,0.0,nan,0.25000000000000006
0.0,0.0,0.0,0.0,0.0,0.0,0.0,0.0,0.0,0.0,0.1633628179866692,nan,0.0,nan,nan,nan,nan,nan,0.0,nan,0.0,nan,nan,2479338.7561463322,43093.55,0.0,0.25000000000000006,1.8060575819088087,11.4,1.8060575819088087,11.4,43093.55,0.0,0.0,0.0,0.0,0.0,0.0,0.25000000000000006,0.0,0.0,0.0,0.0,0.0,0.0,0.0,0.0,0.0,0.0,9.359999999999998,nan,nan,nan,nan,nan,nan,0.0,nan,0.0,nan,0.0,nan,0.26000000000000006
0.0,0.0,0.0,0.0,0.0,0.0,0.0,0.0,0.0,0.0,0.1696460032938488,nan,0.0,nan,nan,nan,nan,nan,0.0,nan,0.0,nan,nan,2479338.7561463322,43093.55,0.0,0.26000000000000006,1.8041085001322366,11.4,1.8041085001322366,11.4,43093.55,0.0,0.0,0.0,0.0,0.0,0.0,0.26000000000000006,0.0,0.0,0.0,0.0,0.0,0.0,0.0,0.0,0.0,0.0,9.719999999999999,nan,nan,nan,nan,nan,nan,0.0,nan,0.0,nan,0.0,nan,0.2700000000000001
0.0,0.0,0.0,0.0,0.0,0.0,0.0,0.0,0.0,0.0,0.17592918860102838,nan,0.0,nan,nan,nan,nan,nan,0.0,nan,0.0,nan,nan,2479338.7561463322,43093.55,0.0,0.2700000000000001,1.8020837215918706,11.4,1.8020837215918706,11.4,43093.55,0.0,0.0,0.0,0.0,0.0,0.0,0.2700000000000001,0.0,0.0,0.0,0.0,0.0,0.0,0.0,0.0,0.0,0.0,10.079999999999998,nan,nan,nan,nan,nan,nan,0.0,nan,0.0,nan,0.0,nan,0.2800000000000001
0.0,0.0,0.0,0.0,0.0,0.0,0.0,0.0,0.0,0.0,0.18221237390820796,nan,0.0,nan,nan,nan,nan,nan,0.0,nan,0.0,nan,nan,2479338.7561463322,43093.55,0.0,0.2800000000000001,1.7999833312433455,11.4,1.7999833312433455,11.4,43093.55,0.0,0.0,0.0,0.0,0.0,0.0,0.2800000000000001,0.0,0.0,0.0,0.0,0.0,0.0,0.0,0.0,0.0,0.0,10.439999999999998,nan,nan,nan,nan,nan,nan,0.0,nan,0.0,nan,0.0,nan,0.2900000000000001
0.0,0.0,0.0,0.0,0.0,0.0,0.0,0.0,0.0,0.0,0.18849555921538755,nan,0.0,nan,nan,nan,nan,nan,0.0,nan,0.0,nan,nan,2479338.7561463322,43093.55,0.0,0.2900000000000001,1.7978074172148155,11.4,1.7978074172148155,11.4,43093.55,0.0,0.0,0.0,0.0,0.0,0.0,0.2900000000000001,0.0,0.0,0.0,0.0,0.0,0.0,0.0,0.0,0.0,0.0,10.799999999999997,nan,nan,nan,nan,nan,nan,0.0,nan,0.0,nan,0.0,nan,0.3000000000000001
0.0,0.0,0.0,0.0,0.0,0.0,0.0,0.0,0.0,0.0,0.19477874452256713,nan,0.0,nan,nan,nan,nan,nan,0.0,nan,0.0,nan,nan,2479338.7561463322,43093.55,0.0,0.3000000000000001,1.7955560708032563,11.4,1.7955560708032563,11.4,43093.55,0.0,0.0,0.0,0.0,0.0,0.0,0.3000000000000001,0.0,0.0,0.0,0.0,0.0,0.0,0.0,0.0,0.0,0.0,11.159999999999998,nan,nan,nan,nan,nan,nan,0.0,nan,0.0,nan,0.0,nan,0.3100000000000001
0.0,0.0,0.0,0.0,0.0,0.0,0.0,0.0,0.0,0.0,0.20106192982974672,nan,0.0,nan,nan,nan,nan,nan,0.0,nan,0.0,nan,nan,2479338.7561463322,43093.55,0.0,0.3100000000000001,1.7932293864706352,11.4,1.7932293864706352,11.4,43093.55,0.0,0.0,0.0,0.0,0.0,0.0,0.3100000000000001,0.0,0.0,0.0,0.0,0.0,0.0,0.0,0.0,0.0,0.0,11.519999999999998,nan,nan,nan,nan,nan,nan,0.0,nan,0.0,nan,0.0,nan,0.3200000000000001
0.0,0.0,0.0,0.0,0.0,0.0,0.0,0.0,0.0,0.0,0.2073451151369263,nan,0.0,nan,nan,nan,nan,nan,0.0,nan,0.0,nan,nan,2479338.7561463322,43093.55,0.0,0.3200000000000001,1.7908274618399465,11.4,1.7908274618399465,11.4,43093.55,0.0,0.0,0.0,0.0,0.0,0.0,0.3200000000000001,0.0,0.0,0.0,0.0,0.0,0.0,0.0,0.0,0.0,0.0,11.879999999999999,nan,nan,nan,nan,nan,nan,0.0,nan,0.0,nan,0.0,nan,0.3300000000000001
0.0,0.0,0.0,0.0,0.0,0.0,0.0,0.0,0.0,0.0,0.21362830044410588,nan,0.0,nan,nan,nan,nan,nan,0.0,nan,0.0,nan,nan,2479338.7561463322,43093.55,0.0,0.3300000000000001,1.7883503976911166,11.4,1.7883503976911166,11.4,43093.55,0.0,0.0,0.0,0.0,0.0,0.0,0.3300000000000001,0.0,0.0,0.0,0.0,0.0,0.0,0.0,0.0,0.0,0.0,12.239999999999997,nan,nan,nan,nan,nan,nan,0.0,nan,0.0,nan,0.0,nan,0.34000000000000014
0.0,0.0,0.0,0.0,0.0,0.0,0.0,0.0,0.0,0.0,0.21991148575128547,nan,0.0,nan,nan,nan,nan,nan,0.0,nan,0.0,nan,nan,2479338.7561463322,43093.55,0.0,0.34000000000000014,1.7857982979567744,11.4,1.7857982979567744,11.4,43093.55,0.0,0.0,0.0,0.0,0.0,0.0,0.34000000000000014,0.0,0.0,0.0,0.0,0.0,0.0,0.0,0.0,0.0,0.0,12.599999999999996,nan,nan,nan,nan,nan,nan,0.0,nan,0.0,nan,0.0,nan,0.35000000000000014
0.0,0.0,0.0,0.0,0.0,0.0,0.0,0.0,0.0,0.0,0.22619467105846505,nan,0.0,nan,nan,nan,nan,nan,0.0,nan,0.0,nan,nan,2479338.7561463322,43093.55,0.0,0.35000000000000014,1.7831712697178919,11.4,1.7831712697178919,11.4,43093.55,0.0,0.0,0.0,0.0,0.0,0.0,0.35000000000000014,0.0,0.0,0.0,0.0,0.0,0.0,0.0,0.0,0.0,0.0,12.959999999999997,nan,nan,nan,nan,nan,nan,0.0,nan,0.0,nan,0.0,nan,0.36000000000000015
0.0,0.0,0.0,0.0,0.0,0.0,0.0,0.0,0.0,0.0,0.23247785636564464,nan,0.0,nan,nan,nan,nan,nan,0.0,nan,0.0,nan,nan,2479338.7561463322,43093.55,0.0,0.36000000000000015,1.780469423199289,11.4,1.780469423199289,11.4,43093.55,0.0,0.0,0.0,0.0,0.0,0.0,0.36000000000000015,0.0,0.0,0.0,0.0,0.0,0.0,0.0,0.0,0.0,0.0,13.319999999999997,nan,nan,nan,nan,nan,nan,0.0,nan,0.0,nan,0.0,nan,0.37000000000000016
0.0,0.0,0.0,0.0,0.0,0.0,0.0,0.0,0.0,0.0,0.23876104167282422,nan,0.0,nan,nan,nan,nan,nan,0.0,nan,0.0,nan,nan,2479338.7561463322,43093.55,0.0,0.37000000000000016,1.7776928717650116,11.4,1.7776928717650116,11.4,43093.55,0.0,0.0,0.0,0.0,0.0,0.0,0.37000000000000016,0.0,0.0,0.0,0.0,0.0,0.0,0.0,0.0,0.0,0.0,13.679999999999998,nan,nan,nan,nan,nan,nan,0.0,nan,0.0,nan,0.0,nan,0.38000000000000017
0.0,0.0,0.0,0.0,0.0,0.0,0.0,0.0,0.0,0.0,0.2450442269800038,nan,0.0,nan,nan,nan,nan,nan,0.0,nan,0.0,nan,nan,2479338.7561463322,43093.55,0.0,0.38000000000000017,1.7748417319135728,11.4,1.7748417319135728,11.4,43093.55,0.0,0.0,0.0,0.0,0.0,0.0,0.38000000000000017,0.0,0.0,0.0,0.0,0.0,0.0,0.0,0.0,0.0,0.0,14.039999999999997,nan,nan,nan,nan,nan,nan,0.0,nan,0.0,nan,0.0,nan,0.3900000000000002
0.0,0.0,0.0,0.0,0.0,0.0,0.0,0.0,0.0,0.0,0.2513274122871834,nan,0.0,nan,nan,nan,nan,nan,0.0,nan,0.0,nan,nan,2479338.7561463322,43093.55,0.0,0.3900000000000002,1.771916123273066,11.4,1.771916123273066,11.4,43093.55,0.0,0.0,0.0,0.0,0.0,0.0,0.3900000000000002,0.0,0.0,0.0,0.0,0.0,0.0,0.0,0.0,0.0,0.0,14.399999999999999,nan,nan,nan,nan,nan,nan,0.0,nan,0.0,nan,0.0,nan,0.4000000000000002
0.0,0.0,0.0,0.0,0.0,0.0,0.0,0.0,0.0,0.0,0.257610597594363,nan,0.0,nan,nan,nan,nan,nan,0.0,nan,0.0,nan,nan,2479338.7561463322,43093.55,0.0,0.4000000000000002,1.768916168596145,11.4,1.768916168596145,11.4,43093.55,0.0,0.0,0.0,0.0,0.0,0.0,0.4000000000000002,0.0,0.0,0.0,0.0,0.0,0.0,0.0,0.0,0.0,0.0,14.759999999999998,nan,nan,nan,nan,nan,nan,0.0,nan,0.0,nan,0.0,nan,0.4100000000000002
0.0,0.0,0.0,0.0,0.0,0.0,0.0,0.0,0.0,0.0,0.2638937829015426,nan,0.0,nan,nan,nan,nan,nan,0.0,nan,0.0,nan,nan,2479338.7561463322,43093.55,0.0,0.4100000000000002,1.7658419937548737,11.4,1.7658419937548737,11.4,43093.55,0.0,0.0,0.0,0.0,0.0,0.0,0.4100000000000002,0.0,0.0,0.0,0.0,0.0,0.0,0.0,0.0,0.0,0.0,15.119999999999997,nan,nan,nan,nan,nan,nan,0.0,nan,0.0,nan,0.0,nan,0.4200000000000002
0.0,0.0,0.0,0.0,0.0,0.0,0.0,0.0,0.0,0.0,0.27017696820872217,nan,0.0,nan,nan,nan,nan,nan,0.0,nan,0.0,nan,nan,2479338.7561463322,43093.55,0.0,0.4200000000000002,1.762693727735445,11.4,1.762693727735445,11.4,43093.55,0.0,0.0,0.0,0.0,0.0,0.0,0.4200000000000002,0.0,0.0,0.0,0.0,0.0,0.0,0.0,0.0,0.0,0.0,15.479999999999999,nan,nan,nan,nan,nan,nan,0.0,nan,0.0,nan,0.0,nan,0.4300000000000002
0.0,0.0,0.0,0.0,0.0,0.0,0.0,0.0,0.0,0.0,0.27646015351590175,nan,0.0,nan,nan,nan,nan,nan,0.0,nan,0.0,nan,nan,2479338.7561463322,43093.55,0.0,0.4300000000000002,1.7594715026327685,11.4,1.7594715026327685,11.4,43093.55,0.0,0.0,0.0,0.0,0.0,0.0,0.4300000000000002,0.0,0.0,0.0,0.0,0.0,0.0,0.0,0.0,0.0,0.0,15.839999999999998,nan,nan,nan,nan,nan,nan,0.0,nan,0.0,nan,0.0,nan,0.4400000000000002
0.0,0.0,0.0,0.0,0.0,0.0,0.0,0.0,0.0,0.0,0.28274333882308134,nan,0.0,nan,nan,nan,nan,nan,0.0,nan,0.0,nan,nan,2479338.7561463322,43093.55,0.0,0.4400000000000002,1.7561754536449279,11.4,1.7561754536449279,11.4,43093.55,0.0,0.0,0.0,0.0,0.0,0.0,0.4400000000000002,0.0,0.0,0.0,0.0,0.0,0.0,0.0,0.0,0.0,0.0,16.199999999999996,nan,nan,nan,nan,nan,nan,0.0,nan,0.0,nan,0.0,nan,0.45000000000000023
0.0,0.0,0.0,0.0,0.0,0.0,0.0,0.0,0.0,0.0,0.2890265241302609,nan,0.0,nan,nan,nan,nan,nan,0.0,nan,0.0,nan,nan,2479338.7561463322,43093.55,0.0,0.45000000000000023,1.7528057190675093,11.4,1.7528057190675093,11.4,43093.55,0.0,0.0,0.0,0.0,0.0,0.0,0.45000000000000023,0.0,0.0,0.0,0.0,0.0,0.0,0.0,0.0,0.0,0.0,16.559999999999995,nan,nan,nan,nan,nan,nan,0.0,nan,0.0,nan,0.0,nan,0.46000000000000024
0.0,0.0,0.0,0.0,0.0,0.0,0.0,0.0,0.0,0.0,0.2953097094374405,nan,0.0,nan,nan,nan,nan,nan,0.0,nan,0.0,nan,nan,2479338.7561463322,43093.55,0.0,0.46000000000000024,1.7493624402877972,11.4,1.7493624402877972,11.4,43093.55,0.0,0.0,0.0,0.0,0.0,0.0,0.46000000000000024,0.0,0.0,0.0,0.0,0.0,0.0,0.0,0.0,0.0,0.0,16.919999999999998,nan,nan,nan,nan,nan,nan,0.0,nan,0.0,nan,0.0,nan,0.47000000000000025
0.0,0.0,0.0,0.0,0.0,0.0,0.0,0.0,0.0,0.0,0.3015928947446201,nan,0.0,nan,nan,nan,nan,nan,0.0,nan,0.0,nan,nan,2479338.7561463322,43093.55,0.0,0.47000000000000025,1.7458457617788432,11.4,1.7458457617788432,11.4,43093.55,0.0,0.0,0.0,0.0,0.0,0.0,0.47000000000000025,0.0,0.0,0.0,0.0,0.0,0.0,0.0,0.0,0.0,0.0,17.279999999999998,nan,nan,nan,nan,nan,nan,0.0,nan,0.0,nan,0.0,nan,0.48000000000000026
0.0,0.0,0.0,0.0,0.0,0.0,0.0,0.0,0.0,0.0,0.30787608005179967,nan,0.0,nan,nan,nan,nan,nan,0.0,nan,0.0,nan,nan,2479338.7561463322,43093.55,0.0,0.48000000000000026,1.7422558310934042,11.4,1.7422558310934042,11.4,43093.55,0.0,0.0,0.0,0.0,0.0,0.0,0.48000000000000026,0.0,0.0,0.0,0.0,0.0,0.0,0.0,0.0,0.0,0.0,17.639999999999997,nan,nan,nan,nan,nan,nan,0.0,nan,0.0,nan,0.0,nan,0.49000000000000027
0.0,0.0,0.0,0.0,0.0,0.0,0.0,0.0,0.0,0.0,0.31415926535897926,nan,0.0,nan,nan,nan,nan,nan,0.0,nan,0.0,nan,nan,2479338.7561463322,43093.55,0.0,0.49000000000000027,1.7385927988577505,11.4,1.7385927988577505,11.4,43093.55,0.0,0.0,0.0,0.0,0.0,0.0,0.49000000000000027,0.0,0.0,0.0,0.0,0.0,0.0,0.0,0.0,0.0,0.0,17.999999999999996,nan,nan,nan,nan,nan,nan,0.0,nan,0.0,nan,0.0,nan,0.5000000000000002
0.0,0.0,0.0,0.0,0.0,0.0,0.0,0.0,0.0,0.0,0.32044245066615884,nan,0.0,nan,nan,nan,nan,nan,0.0,nan,0.0,nan,nan,2479338.7561463322,43093.55,0.0,0.5000000000000002,1.734856818765347,11.4,1.734856818765347,11.4,43093.55,0.0,0.0,0.0,0.0,0.0,0.0,0.5000000000000002,0.0,0.0,0.0,0.0,0.0,0.0,0.0,0.0,0.0,0.0,18.359999999999996,nan,nan,nan,nan,nan,nan,0.0,nan,0.0,nan,0.0,nan,0.5100000000000002
0.0,0.0,0.0,0.0,0.0,0.0,0.0,0.0,0.0,0.0,0.3267256359733384,nan,0.0,nan,nan,nan,nan,nan,0.0,nan,0.0,nan,nan,2479338.7561463322,43093.55,0.0,0.5100000000000002,1.7310480475704035,11.4,1.7310480475704035,11.4,43093.55,0.0,0.0,0.0,0.0,0.0,0.0,0.5100000000000002,0.0,0.0,0.0,0.0,0.0,0.0,0.0,0.0,0.0,0.0,18.719999999999995,nan,nan,nan,nan,nan,nan,0.0,nan,0.0,nan,0.0,nan,0.5200000000000002
0.0,0.0,0.0,0.0,0.0,0.0,0.0,0.0,0.0,0.0,0.333008821280518,nan,0.0,nan,nan,nan,nan,nan,0.0,nan,0.0,nan,nan,2479338.7561463322,43093.55,0.0,0.5200000000000002,1.7271666450812984,11.4,1.7271666450812984,11.4,43093.55,0.0,0.0,0.0,0.0,0.0,0.0,0.5200000000000002,0.0,0.0,0.0,0.0,0.0,0.0,0.0,0.0,0.0,0.0,19.079999999999995,nan,nan,nan,nan,nan,nan,0.0,nan,0.0,nan,0.0,nan,0.5300000000000002
0.0,0.0,0.0,0.0,0.0,0.0,0.0,0.0,0.0,0.0,0.3392920065876976,nan,0.0,nan,nan,nan,nan,nan,0.0,nan,0.0,nan,nan,2479338.7561463322,43093.55,0.0,0.5300000000000002,1.7232127741538723,11.4,1.7232127741538723,11.4,43093.55,0.0,0.0,0.0,0.0,0.0,0.0,0.5300000000000002,0.0,0.0,0.0,0.0,0.0,0.0,0.0,0.0,0.0,0.0,19.439999999999998,nan,nan,nan,nan,nan,nan,0.0,nan,0.0,nan,0.0,nan,0.5400000000000003
0.0,0.0,0.0,0.0,0.0,0.0,0.0,0.0,0.0,0.0,0.3455751918948772,nan,0.0,nan,nan,nan,nan,nan,0.0,nan,0.0,nan,nan,2479338.7561463322,43093.55,0.0,0.5400000000000003,1.719186600684597,11.4,1.719186600684597,11.4,43093.55,0.0,0.0,0.0,0.0,0.0,0.0,0.5400000000000003,0.0,0.0,0.0,0.0,0.0,0.0,0.0,0.0,0.0,0.0,19.799999999999997,nan,nan,nan,nan,nan,nan,0.0,nan,0.0,nan,0.0,nan,0.5500000000000003
0.0,0.0,0.0,0.0,0.0,0.0,0.0,0.0,0.0,0.0,0.35185837720205676,nan,0.0,nan,nan,nan,nan,nan,0.0,nan,0.0,nan,nan,2479338.7561463322,43093.55,0.0,0.5500000000000003,1.7150882936036125,11.4,1.7150882936036125,11.4,43093.55,0.0,0.0,0.0,0.0,0.0,0.0,0.5500000000000003,0.0,0.0,0.0,0.0,0.0,0.0,0.0,0.0,0.0,0.0,20.159999999999997,nan,nan,nan,nan,nan,nan,0.0,nan,0.0,nan,0.0,nan,0.5600000000000003
0.0,0.0,0.0,0.0,0.0,0.0,0.0,0.0,0.0,0.0,0.35814156250923634,nan,0.0,nan,nan,nan,nan,nan,0.0,nan,0.0,nan,nan,2479338.7561463322,43093.55,0.0,0.5600000000000003,1.7109180248676403,11.4,1.7109180248676403,11.4,43093.55,0.0,0.0,0.0,0.0,0.0,0.0,0.5600000000000003,0.0,0.0,0.0,0.0,0.0,0.0,0.0,0.0,0.0,0.0,20.519999999999996,nan,nan,nan,nan,nan,nan,0.0,nan,0.0,nan,0.0,nan,0.5700000000000003
0.0,0.0,0.0,0.0,0.0,0.0,0.0,0.0,0.0,0.0,0.36442474781641593,nan,0.0,nan,nan,nan,nan,nan,0.0,nan,0.0,nan,nan,2479338.7561463322,43093.55,0.0,0.5700000000000003,1.7066759694527684,11.4,1.7066759694527684,11.4,43093.55,0.0,0.0,0.0,0.0,0.0,0.0,0.5700000000000003,0.0,0.0,0.0,0.0,0.0,0.0,0.0,0.0,0.0,0.0,20.879999999999995,nan,nan,nan,nan,nan,nan,0.0,nan,0.0,nan,0.0,nan,0.5800000000000003
0.0,0.0,0.0,0.0,0.0,0.0,0.0,0.0,0.0,0.0,0.3707079331235955,nan,0.0,nan,nan,nan,nan,nan,0.0,nan,0.0,nan,nan,2479338.7561463322,43093.55,0.0,0.5800000000000003,1.7023623053471095,11.4,1.7023623053471095,11.4,43093.55,0.0,0.0,0.0,0.0,0.0,0.0,0.5800000000000003,0.0,0.0,0.0,0.0,0.0,0.0,0.0,0.0,0.0,0.0,21.239999999999995,nan,nan,nan,nan,nan,nan,0.0,nan,0.0,nan,0.0,nan,0.5900000000000003
0.0,0.0,0.0,0.0,0.0,0.0,0.0,0.0,0.0,0.0,0.3769911184307751,nan,0.0,nan,nan,nan,nan,nan,0.0,nan,0.0,nan,nan,2479338.7561463322,43093.55,0.0,0.5900000000000003,1.6979772135433326,11.4,1.6979772135433326,11.4,43093.55,0.0,0.0,0.0,0.0,0.0,0.0,0.5900000000000003,0.0,0.0,0.0,0.0,0.0,0.0,0.0,0.0,0.0,0.0,21.599999999999994,nan,nan,nan,nan,nan,nan,0.0,nan,0.0,nan,0.0,nan,0.6000000000000003
0.0,0.0,0.0,0.0,0.0,0.0,0.0,0.0,0.0,0.0,0.3832743037379547,nan,0.0,nan,nan,nan,nan,nan,0.0,nan,0.0,nan,nan,2479338.7561463322,43093.55,0.0,0.6000000000000003,1.6935208780310693,11.4,1.6935208780310693,11.4,43093.55,0.0,0.0,0.0,0.0,0.0,0.0,0.6000000000000003,0.0,0.0,0.0,0.0,0.0,0.0,0.0,0.0,0.0,0.0,21.959999999999997,nan,nan,nan,nan,nan,nan,0.0,nan,0.0,nan,0.0,nan,0.6100000000000003
0.0,0.0,0.0,0.0,0.0,0.0,0.0,0.0,0.0,0.0,0.38955748904513426,nan,0.0,nan,nan,nan,nan,nan,0.0,nan,0.0,nan,nan,2479338.7561463322,43093.55,0.0,0.6100000000000003,1.688993485789194,11.4,1.688993485789194,11.4,43093.55,0.0,0.0,0.0,0.0,0.0,0.0,0.6100000000000003,0.0,0.0,0.0,0.0,0.0,0.0,0.0,0.0,0.0,0.0,22.319999999999997,nan,nan,nan,nan,nan,nan,0.0,nan,0.0,nan,0.0,nan,0.6200000000000003
0.0,0.0,0.0,0.0,0.0,0.0,0.0,0.0,0.0,0.0,0.39584067435231385,nan,0.0,nan,nan,nan,nan,nan,0.0,nan,0.0,nan,nan,2479338.7561463322,43093.55,0.0,0.6200000000000003,1.6843952267779787,11.4,1.6843952267779787,11.4,43093.55,0.0,0.0,0.0,0.0,0.0,0.0,0.6200000000000003,0.0,0.0,0.0,0.0,0.0,0.0,0.0,0.0,0.0,0.0,22.679999999999996,nan,nan,nan,nan,nan,nan,0.0,nan,0.0,nan,0.0,nan,0.6300000000000003
0.0,0.0,0.0,0.0,0.0,0.0,0.0,0.0,0.0,0.0,0.40212385965949343,nan,0.0,nan,nan,nan,nan,nan,0.0,nan,0.0,nan,nan,2479338.7561463322,43093.55,0.0,0.6300000000000003,1.6797262939311222,11.4,1.6797262939311222,11.4,43093.55,0.0,0.0,0.0,0.0,0.0,0.0,0.6300000000000003,0.0,0.0,0.0,0.0,0.0,0.0,0.0,0.0,0.0,0.0,23.039999999999996,nan,nan,nan,nan,nan,nan,0.0,nan,0.0,nan,0.0,nan,0.6400000000000003
0.0,0.0,0.0,0.0,0.0,0.0,0.0,0.0,0.0,0.0,0.408407044966673,nan,0.0,nan,nan,nan,nan,nan,0.0,nan,0.0,nan,nan,2479338.7561463322,43093.55,0.0,0.6400000000000003,1.6749868831476558,11.4,1.6749868831476558,11.4,43093.55,0.0,0.0,0.0,0.0,0.0,0.0,0.6400000000000003,0.0,0.0,0.0,0.0,0.0,0.0,0.0,0.0,0.0,0.0,23.399999999999995,nan,nan,nan,nan,nan,nan,0.0,nan,0.0,nan,0.0,nan,0.6500000000000004
0.0,0.0,0.0,0.0,0.0,0.0,0.0,0.0,0.0,0.0,0.4146902302738526,nan,0.0,nan,nan,nan,nan,nan,0.0,nan,0.0,nan,nan,2479338.7561463322,43093.55,0.0,0.6500000000000004,1.6701771932837224,11.4,1.6701771932837224,11.4,43093.55,0.0,0.0,0.0,0.0,0.0,0.0,0.6500000000000004,0.0,0.0,0.0,0.0,0.0,0.0,0.0,0.0,0.0,0.0,23.759999999999998,nan,nan,nan,nan,nan,nan,0.0,nan,0.0,nan,0.0,nan,0.6600000000000004
0.0,0.0,0.0,0.0,0.0,0.0,0.0,0.0,0.0,0.0,0.4209734155810322,nan,0.0,nan,nan,nan,nan,nan,0.0,nan,0.0,nan,nan,2479338.7561463322,43093.55,0.0,0.6600000000000004,1.6652974261442346,11.4,1.6652974261442346,11.4,43093.55,0.0,0.0,0.0,0.0,0.0,0.0,0.6600000000000004,0.0,0.0,0.0,0.0,0.0,0.0,0.0,0.0,0.0,0.0,24.119999999999994,nan,nan,nan,nan,nan,nan,0.0,nan,0.0,nan,0.0,nan,0.6700000000000004
0.0,0.0,0.0,0.0,0.0,0.0,0.0,0.0,0.0,0.0,0.42725660088821177,nan,0.0,nan,nan,nan,nan,nan,0.0,nan,0.0,nan,nan,2479338.7561463322,43093.55,0.0,0.6700000000000004,1.6603477864744058,11.4,1.6603477864744058,11.4,43093.55,0.0,0.0,0.0,0.0,0.0,0.0,0.6700000000000004,0.0,0.0,0.0,0.0,0.0,0.0,0.0,0.0,0.0,0.0,24.479999999999993,nan,nan,nan,nan,nan,nan,0.0,nan,0.0,nan,0.0,nan,0.6800000000000004
0.0,0.0,0.0,0.0,0.0,0.0,0.0,0.0,0.0,0.0,0.43353978619539135,nan,0.0,nan,nan,nan,nan,nan,0.0,nan,0.0,nan,nan,2479338.7561463322,43093.55,0.0,0.6800000000000004,1.6553284819511611,11.4,1.6553284819511611,11.4,43093.55,0.0,0.0,0.0,0.0,0.0,0.0,0.6800000000000004,0.0,0.0,0.0,0.0,0.0,0.0,0.0,0.0,0.0,0.0,24.839999999999993,nan,nan,nan,nan,nan,nan,0.0,nan,0.0,nan,0.0,nan,0.6900000000000004
0.0,0.0,0.0,0.0,0.0,0.0,0.0,0.0,0.0,0.0,0.43982297150257094,nan,0.0,nan,nan,nan,nan,nan,0.0,nan,0.0,nan,nan,2479338.7561463322,43093.55,0.0,0.6900000000000004,1.650239723174422,11.4,1.650239723174422,11.4,43093.55,0.0,0.0,0.0,0.0,0.0,0.0,0.6900000000000004,0.0,0.0,0.0,0.0,0.0,0.0,0.0,0.0,0.0,0.0,25.199999999999992,nan,nan,nan,nan,nan,nan,0.0,nan,0.0,nan,0.0,nan,0.7000000000000004
0.0,0.0,0.0,0.0,0.0,0.0,0.0,0.0,0.0,0.0,0.4461061568097505,nan,0.0,nan,nan,nan,nan,nan,0.0,nan,0.0,nan,nan,2479338.7561463322,43093.55,0.0,0.7000000000000004,1.6450817236582709,11.4,1.6450817236582709,11.4,43093.55,0.0,0.0,0.0,0.0,0.0,0.0,0.7000000000000004,0.0,0.0,0.0,0.0,0.0,0.0,0.0,0.0,0.0,0.0,25.559999999999995,nan,nan,nan,nan,nan,nan,0.0,nan,0.0,nan,0.0,nan,0.7100000000000004
0.0,0.0,0.0,0.0,0.0,0.0,0.0,0.0,0.0,0.0,0.4523893421169301,nan,0.0,nan,nan,nan,nan,nan,0.0,nan,0.0,nan,nan,2479338.7561463322,43093.55,0.0,0.7100000000000004,1.6398546998219923,11.4,1.6398546998219923,11.4,43093.55,0.0,0.0,0.0,0.0,0.0,0.0,0.7100000000000004,0.0,0.0,0.0,0.0,0.0,0.0,0.0,0.0,0.0,0.0,25.919999999999995,nan,nan,nan,nan,nan,nan,0.0,nan,0.0,nan,0.0,nan,0.7200000000000004
0.0,0.0,0.0,0.0,0.0,0.0,0.0,0.0,0.0,0.0,0.4586725274241097,nan,0.0,nan,nan,nan,nan,nan,0.0,nan,0.0,nan,nan,2479338.7561463322,43093.55,0.0,0.7200000000000004,1.6345588709809928,11.4,1.6345588709809928,11.4,43093.55,0.0,0.0,0.0,0.0,0.0,0.0,0.7200000000000004,0.0,0.0,0.0,0.0,0.0,0.0,0.0,0.0,0.0,0.0,26.279999999999994,nan,nan,nan,nan,nan,nan,0.0,nan,0.0,nan,0.0,nan,0.7300000000000004
0.0,0.0,0.0,0.0,0.0,0.0,0.0,0.0,0.0,0.0,0.4649557127312893,nan,0.0,nan,nan,nan,nan,nan,0.0,nan,0.0,nan,nan,2479338.7561463322,43093.55,0.0,0.7300000000000004,1.6291944593375984,11.4,1.6291944593375984,11.4,43093.55,0.0,0.0,0.0,0.0,0.0,0.0,0.7300000000000004,0.0,0.0,0.0,0.0,0.0,0.0,0.0,0.0,0.0,0.0,26.639999999999993,nan,nan,nan,nan,nan,nan,0.0,nan,0.0,nan,0.0,nan,0.7400000000000004
0.0,0.0,0.0,0.0,0.0,0.0,0.0,0.0,0.0,0.0,0.47123889803846886,nan,0.0,nan,nan,nan,nan,nan,0.0,nan,0.0,nan,nan,2479338.7561463322,43093.55,0.0,0.7400000000000004,1.6237616899717309,11.4,1.6237616899717309,11.4,43093.55,0.0,0.0,0.0,0.0,0.0,0.0,0.7400000000000004,0.0,0.0,0.0,0.0,0.0,0.0,0.0,0.0,0.0,0.0,26.999999999999993,nan,nan,nan,nan,nan,nan,0.0,nan,0.0,nan,0.0,nan,0.7500000000000004
0.0,0.0,0.0,0.0,0.0,0.0,0.0,0.0,0.0,0.0,0.47752208334564844,nan,0.0,nan,nan,nan,nan,nan,0.0,nan,0.0,nan,nan,2479338.7561463322,43093.55,0.0,0.7500000000000004,1.6182607908314657,11.4,1.6182607908314657,11.4,43093.55,0.0,0.0,0.0,0.0,0.0,0.0,0.7500000000000004,0.0,0.0,0.0,0.0,0.0,0.0,0.0,0.0,0.0,0.0,27.359999999999996,nan,nan,nan,nan,nan,nan,0.0,nan,0.0,nan,0.0,nan,0.7600000000000005
0.0,0.0,0.0,0.0,0.0,0.0,0.0,0.0,0.0,0.0,0.483805268652828,nan,0.0,nan,nan,nan,nan,nan,0.0,nan,0.0,nan,nan,2479338.7561463322,43093.55,0.0,0.7600000000000005,1.6126919927234653,11.4,1.6126919927234653,11.4,43093.55,0.0,0.0,0.0,0.0,0.0,0.0,0.7600000000000005,0.0,0.0,0.0,0.0,0.0,0.0,0.0,0.0,0.0,0.0,27.719999999999995,nan,nan,nan,nan,nan,nan,0.0,nan,0.0,nan,0.0,nan,0.7700000000000005
0.0,0.0,0.0,0.0,0.0,0.0,0.0,0.0,0.0,0.0,0.4900884539600076,nan,0.0,nan,nan,nan,nan,nan,0.0,nan,0.0,nan,nan,2479338.7561463322,43093.55,0.0,0.7700000000000005,1.6070555293032978,11.4,1.6070555293032978,11.4,43093.55,0.0,0.0,0.0,0.0,0.0,0.0,0.7700000000000005,0.0,0.0,0.0,0.0,0.0,0.0,0.0,0.0,0.0,0.0,28.079999999999995,nan,nan,nan,nan,nan,nan,0.0,nan,0.0,nan,0.0,nan,0.7800000000000005
0.0,0.0,0.0,0.0,0.0,0.0,0.0,0.0,0.0,0.0,0.4963716392671872,nan,0.0,nan,nan,nan,nan,nan,0.0,nan,0.0,nan,nan,2479338.7561463322,43093.55,0.0,0.7800000000000005,1.60135163706563,11.4,1.60135163706563,11.4,43093.55,0.0,0.0,0.0,0.0,0.0,0.0,0.7800000000000005,0.0,0.0,0.0,0.0,0.0,0.0,0.0,0.0,0.0,0.0,28.439999999999994,nan,nan,nan,nan,nan,nan,0.0,nan,0.0,nan,0.0,nan,0.7900000000000005
0.0,0.0,0.0,0.0,0.0,0.0,0.0,0.0,0.0,0.0,0.5026548245743668,nan,0.0,nan,nan,nan,nan,nan,0.0,nan,0.0,nan,nan,2479338.7561463322,43093.55,0.0,0.7900000000000005,1.5955805553343076,11.4,1.5955805553343076,11.4,43093.55,0.0,0.0,0.0,0.0,0.0,0.0,0.7900000000000005,0.0,0.0,0.0,0.0,0.0,0.0,0.0,0.0,0.0,0.0,28.799999999999997,nan,nan,nan,nan,nan,nan,0.0,nan,0.0,nan,0.0,nan,0.8000000000000005
0.0,0.0,0.0,0.0,0.0,0.0,0.0,0.0,0.0,0.0,0.5089380098815465,nan,0.0,nan,nan,nan,nan,nan,0.0,nan,0.0,nan,nan,2479338.7561463322,43093.55,0.0,0.8000000000000005,1.5897425262523117,11.4,1.5897425262523117,11.4,43093.55,0.0,0.0,0.0,0.0,0.0,0.0,0.8000000000000005,0.0,0.0,0.0,0.0,0.0,0.0,0.0,0.0,0.0,0.0,29.16,nan,nan,nan,nan,nan,nan,0.0,nan,0.0,nan,0.0,nan,0.8100000000000005
0.0,0.0,0.0,0.0,0.0,0.0,0.0,0.0,0.0,0.0,0.5152211951887261,nan,0.0,nan,nan,nan,nan,nan,0.0,nan,0.0,nan,nan,2479338.7561463322,43093.55,0.0,0.8100000000000005,1.5838377947716,11.4,1.5838377947716,11.4,43093.55,0.0,0.0,0.0,0.0,0.0,0.0,0.8100000000000005,0.0,0.0,0.0,0.0,0.0,0.0,0.0,0.0,0.0,0.0,29.52,nan,nan,nan,nan,nan,nan,0.0,nan,0.0,nan,0.0,nan,0.8200000000000005
0.0,0.0,0.0,0.0,0.0,0.0,0.0,0.0,0.0,0.0,0.5215043804959058,nan,0.0,nan,nan,nan,nan,nan,0.0,nan,0.0,nan,nan,2479338.7561463322,43093.55,0.0,0.8200000000000005,1.577866608642828,11.4,1.577866608642828,11.4,43093.55,0.0,0.0,0.0,0.0,0.0,0.0,0.8200000000000005,0.0,0.0,0.0,0.0,0.0,0.0,0.0,0.0,0.0,0.0,29.880000000000006,nan,nan,nan,nan,nan,nan,0.0,nan,0.0,nan,0.0,nan,0.8300000000000005
0.0,0.0,0.0,0.0,0.0,0.0,0.0,0.0,0.0,0.0,0.5277875658030854,nan,0.0,nan,nan,nan,nan,nan,0.0,nan,0.0,nan,nan,2479338.7561463322,43093.55,0.0,0.8300000000000005,1.5718292184049547,11.4,1.5718292184049547,11.4,43093.55,0.0,0.0,0.0,0.0,0.0,0.0,0.8300000000000005,0.0,0.0,0.0,0.0,0.0,0.0,0.0,0.0,0.0,0.0,30.24000000000001,nan,nan,nan,nan,nan,nan,0.0,nan,0.0,nan,0.0,nan,0.8400000000000005
0.0,0.0,0.0,0.0,0.0,0.0,0.0,0.0,0.0,0.0,0.534070751110265,nan,0.0,nan,nan,nan,nan,nan,0.0,nan,0.0,nan,nan,2479338.7561463322,43093.55,0.0,0.8400000000000005,1.5657258773747311,11.4,1.5657258773747311,11.4,43093.55,0.0,0.0,0.0,0.0,0.0,0.0,0.8400000000000005,0.0,0.0,0.0,0.0,0.0,0.0,0.0,0.0,0.0,0.0,30.60000000000001,nan,nan,nan,nan,nan,nan,0.0,nan,0.0,nan,0.0,nan,0.8500000000000005
0.0,0.0,0.0,0.0,0.0,0.0,0.0,0.0,0.0,0.0,0.5403539364174447,nan,0.0,nan,nan,nan,nan,nan,0.0,nan,0.0,nan,nan,2479338.7561463322,43093.55,0.0,0.8500000000000005,1.5595568416360701,11.4,1.5595568416360701,11.4,43093.55,0.0,0.0,0.0,0.0,0.0,0.0,0.8500000000000005,0.0,0.0,0.0,0.0,0.0,0.0,0.0,0.0,0.0,0.0,30.960000000000015,nan,nan,nan,nan,nan,nan,0.0,nan,0.0,nan,0.0,nan,0.8600000000000005
0.0,0.0,0.0,0.0,0.0,0.0,0.0,0.0,0.0,0.0,0.5466371217246243,nan,0.0,nan,nan,nan,nan,nan,0.0,nan,0.0,nan,nan,2479338.7561463322,43093.55,0.0,0.8600000000000005,1.5533223700293024,11.4,1.5533223700293024,11.4,43093.55,0.0,0.0,0.0,0.0,0.0,0.0,0.8600000000000005,0.0,0.0,0.0,0.0,0.0,0.0,0.0,0.0,0.0,0.0,31.320000000000018,nan,nan,nan,nan,nan,nan,0.0,nan,0.0,nan,0.0,nan,0.8700000000000006
0.0,0.0,0.0,0.0,0.0,0.0,0.0,0.0,0.0,0.0,0.552920307031804,nan,0.0,nan,nan,nan,nan,nan,0.0,nan,0.0,nan,nan,2479338.7561463322,43093.55,0.0,0.8700000000000006,1.5470227241403165,11.4,1.5470227241403165,11.4,43093.55,0.0,0.0,0.0,0.0,0.0,0.0,0.8700000000000006,0.0,0.0,0.0,0.0,0.0,0.0,0.0,0.0,0.0,0.0,31.68000000000002,nan,nan,nan,nan,nan,nan,0.0,nan,0.0,nan,0.0,nan,0.8800000000000006
0.0,0.0,0.0,0.0,0.0,0.0,0.0,0.0,0.0,0.0,0.5592034923389836,nan,0.0,nan,nan,nan,nan,nan,0.0,nan,0.0,nan,nan,2479338.7561463322,43093.55,0.0,0.8800000000000006,1.5406581682895824,11.4,1.5406581682895824,11.4,43093.55,0.0,0.0,0.0,0.0,0.0,0.0,0.8800000000000006,0.0,0.0,0.0,0.0,0.0,0.0,0.0,0.0,0.0,0.0,32.04000000000003,nan,nan,nan,nan,nan,nan,0.0,nan,0.0,nan,0.0,nan,0.8900000000000006
0.0,0.0,0.0,0.0,0.0,0.0,0.0,0.0,0.0,0.0,0.5654866776461632,nan,0.0,nan,nan,nan,nan,nan,0.0,nan,0.0,nan,nan,2479338.7561463322,43093.55,0.0,0.8900000000000006,1.5342289695210618,11.4,1.5342289695210618,11.4,43093.55,0.0,0.0,0.0,0.0,0.0,0.0,0.8900000000000006,0.0,0.0,0.0,0.0,0.0,0.0,0.0,0.0,0.0,0.0,32.40000000000003,nan,nan,nan,nan,nan,nan,0.0,nan,0.0,nan,0.0,nan,0.9000000000000006
0.0,0.0,0.0,0.0,0.0,0.0,0.0,0.0,0.0,0.0,0.5717698629533429,nan,0.0,nan,nan,nan,nan,nan,0.0,nan,0.0,nan,nan,2479338.7561463322,43093.55,0.0,0.9000000000000006,1.5277353975910029,11.4,1.5277353975910029,11.4,43093.55,0.0,0.0,0.0,0.0,0.0,0.0,0.9000000000000006,0.0,0.0,0.0,0.0,0.0,0.0,0.0,0.0,0.0,0.0,32.760000000000026,nan,nan,nan,nan,nan,nan,0.0,nan,0.0,nan,0.0,nan,0.9100000000000006
0.0,0.0,0.0,0.0,0.0,0.0,0.0,0.0,0.0,0.0,0.5780530482605225,nan,0.0,nan,nan,nan,nan,nan,0.0,nan,0.0,nan,nan,2479338.7561463322,43093.55,0.0,0.9100000000000006,1.5211777249566223,11.4,1.5211777249566223,11.4,43093.55,0.0,0.0,0.0,0.0,0.0,0.0,0.9100000000000006,0.0,0.0,0.0,0.0,0.0,0.0,0.0,0.0,0.0,0.0,33.12000000000003,nan,nan,nan,nan,nan,nan,0.0,nan,0.0,nan,0.0,nan,0.9200000000000006
0.0,0.0,0.0,0.0,0.0,0.0,0.0,0.0,0.0,0.0,0.5843362335677021,nan,0.0,nan,nan,nan,nan,nan,0.0,nan,0.0,nan,nan,2479338.7561463322,43093.55,0.0,0.9200000000000006,1.5145562267646733,11.4,1.5145562267646733,11.4,43093.55,0.0,0.0,0.0,0.0,0.0,0.0,0.9200000000000006,0.0,0.0,0.0,0.0,0.0,0.0,0.0,0.0,0.0,0.0,33.48000000000003,nan,nan,nan,nan,nan,nan,0.0,nan,0.0,nan,0.0,nan,0.9300000000000006
0.0,0.0,0.0,0.0,0.0,0.0,0.0,0.0,0.0,0.0,0.5906194188748818,nan,0.0,nan,nan,nan,nan,nan,0.0,nan,0.0,nan,nan,2479338.7561463322,43093.55,0.0,0.9300000000000006,1.5078711808399012,11.4,1.5078711808399012,11.4,43093.55,0.0,0.0,0.0,0.0,0.0,0.0,0.9300000000000006,0.0,0.0,0.0,0.0,0.0,0.0,0.0,0.0,0.0,0.0,33.84000000000004,nan,nan,nan,nan,nan,nan,0.0,nan,0.0,nan,0.0,nan,0.9400000000000006
0.0,0.0,0.0,0.0,0.0,0.0,0.0,0.0,0.0,0.0,0.5969026041820614,nan,0.0,nan,nan,nan,nan,nan,0.0,nan,0.0,nan,nan,2479338.7561463322,43093.55,0.0,0.9400000000000006,1.501122867673387,11.4,1.501122867673387,11.4,43093.55,0.0,0.0,0.0,0.0,0.0,0.0,0.9400000000000006,0.0,0.0,0.0,0.0,0.0,0.0,0.0,0.0,0.0,0.0,34.200000000000045,nan,nan,nan,nan,nan,nan,0.0,nan,0.0,nan,0.0,nan,0.9500000000000006
0.0,0.0,0.0,0.0,0.0,0.0,0.0,0.0,0.0,0.0,0.6031857894892411,nan,0.0,nan,nan,nan,nan,nan,0.0,nan,0.0,nan,nan,2479338.7561463322,43093.55,0.0,0.9500000000000006,1.4943115704107766,11.4,1.4943115704107766,11.4,43093.55,0.0,0.0,0.0,0.0,0.0,0.0,0.9500000000000006,0.0,0.0,0.0,0.0,0.0,0.0,0.0,0.0,0.0,0.0,34.560000000000045,nan,nan,nan,nan,nan,nan,0.0,nan,0.0,nan,0.0,nan,0.9600000000000006
0.0,0.0,0.0,0.0,0.0,0.0,0.0,0.0,0.0,0.0,0.6094689747964207,nan,0.0,nan,nan,nan,nan,nan,0.0,nan,0.0,nan,nan,2479338.7561463322,43093.55,0.0,0.9600000000000006,1.4874375748404025,11.4,1.4874375748404025,11.4,43093.55,0.0,0.0,0.0,0.0,0.0,0.0,0.9600000000000006,0.0,0.0,0.0,0.0,0.0,0.0,0.0,0.0,0.0,0.0,34.92000000000005,nan,nan,nan,nan,nan,nan,0.0,nan,0.0,nan,0.0,nan,0.9700000000000006
0.0,0.0,0.0,0.0,0.0,0.0,0.0,0.0,0.0,0.0,0.6157521601036003,nan,0.0,nan,nan,nan,nan,nan,0.0,nan,0.0,nan,nan,2479338.7561463322,43093.55,0.0,0.9700000000000006,1.4805011693812926,11.4,1.4805011693812926,11.4,43093.55,0.0,0.0,0.0,0.0,0.0,0.0,0.9700000000000006,0.0,0.0,0.0,0.0,0.0,0.0,0.0,0.0,0.0,0.0,35.28000000000005,nan,nan,nan,nan,nan,nan,0.0,nan,0.0,nan,0.0,nan,0.9800000000000006
0.0,0.0,0.0,0.0,0.0,0.0,0.0,0.0,0.0,0.0,0.62203534541078,nan,0.0,nan,nan,nan,nan,nan,0.0,nan,0.0,nan,nan,2479338.7561463322,43093.55,0.0,0.9800000000000006,1.4735026450710673,11.4,1.4735026450710673,11.4,43093.55,0.0,0.0,0.0,0.0,0.0,0.0,0.9800000000000006,0.0,0.0,0.0,0.0,0.0,0.0,0.0,0.0,0.0,0.0,35.64000000000006,nan,nan,nan,nan,nan,nan,0.0,nan,0.0,nan,0.0,nan,0.9900000000000007
0.0,0.0,0.0,0.0,0.0,0.0,0.0,0.0,0.0,0.0,0.6283185307179596,nan,0.0,nan,nan,nan,nan,nan,0.0,nan,0.0,nan,nan,2479338.7561463322,43093.55,0.0,0.9900000000000007,1.46644229555373,11.4,1.46644229555373,11.4,43093.55,0.0,0.0,0.0,0.0,0.0,0.0,0.9900000000000007,0.0,0.0,0.0,0.0,0.0,0.0,0.0,0.0,0.0,0.0,36.00000000000006,nan,nan,nan,nan,nan,nan,0.0,nan,0.0,nan,0.0,nan,1.0000000000000007
0.0,0.0,0.0,0.0,0.0,0.0,0.0,0.0,0.0,0.0,0.6346017160251393,nan,0.0,nan,nan,nan,nan,nan,0.0,nan,0.0,nan,nan,2479338.7561463322,43093.55,0.0,1.0000000000000007,1.4593204170673446,11.4,1.4593204170673446,11.4,43093.55,0.0,0.0,0.0,0.0,0.0,0.0,1.0000000000000007,0.0,0.0,0.0,0.0,0.0,0.0,0.0,0.0,0.0,0.0,36.360000000000056,nan,nan,nan,nan,nan,nan,0.0,nan,0.0,nan,0.0,nan,1.0100000000000007
0.0,0.0,0.0,0.0,0.0,0.0,0.0,0.0,0.0,0.0,0.6408849013323189,nan,0.0,nan,nan,nan,nan,nan,0.0,nan,0.0,nan,nan,2479338.7561463322,43093.55,0.0,1.0100000000000007,1.452137308431607,11.4,1.452137308431607,11.4,43093.55,0.0,0.0,0.0,0.0,0.0,0.0,1.0100000000000007,0.0,0.0,0.0,0.0,0.0,0.0,0.0,0.0,0.0,0.0,36.72000000000006,nan,nan,nan,nan,nan,nan,0.0,nan,0.0,nan,0.0,nan,1.0200000000000007
0.0,0.0,0.0,0.0,0.0,0.0,0.0,0.0,0.0,0.0,0.6471680866394985,nan,0.0,nan,nan,nan,nan,nan,0.0,nan,0.0,nan,nan,2479338.7561463322,43093.55,0.0,1.0200000000000007,1.4448932710353073,11.4,1.4448932710353073,11.4,43093.55,0.0,0.0,0.0,0.0,0.0,0.0,1.0200000000000007,0.0,0.0,0.0,0.0,0.0,0.0,0.0,0.0,0.0,0.0,37.08000000000007,nan,nan,nan,nan,nan,nan,0.0,nan,0.0,nan,0.0,nan,1.0300000000000007
0.0,0.0,0.0,0.0,0.0,0.0,0.0,0.0,0.0,0.0,0.6534512719466782,nan,0.0,nan,nan,nan,nan,nan,0.0,nan,0.0,nan,nan,2479338.7561463322,43093.55,0.0,1.0300000000000007,1.4375886088236836,11.4,1.4375886088236836,11.4,43093.55,0.0,0.0,0.0,0.0,0.0,0.0,1.0300000000000007,0.0,0.0,0.0,0.0,0.0,0.0,0.0,0.0,0.0,0.0,37.44000000000007,nan,nan,nan,nan,nan,nan,0.0,nan,0.0,nan,0.0,nan,1.0400000000000007
0.0,0.0,0.0,0.0,0.0,0.0,0.0,0.0,0.0,0.0,0.6597344572538578,nan,0.0,nan,nan,nan,nan,nan,0.0,nan,0.0,nan,nan,2479338.7561463322,43093.55,0.0,1.0400000000000007,1.430223628285669,11.4,1.430223628285669,11.4,43093.55,0.0,0.0,0.0,0.0,0.0,0.0,1.0400000000000007,0.0,0.0,0.0,0.0,0.0,0.0,0.0,0.0,0.0,0.0,37.800000000000075,nan,nan,nan,nan,nan,nan,0.0,nan,0.0,nan,0.0,nan,1.0500000000000007
0.0,0.0,0.0,0.0,0.0,0.0,0.0,0.0,0.0,0.0,0.6660176425610375,nan,0.0,nan,nan,nan,nan,nan,0.0,nan,0.0,nan,nan,2479338.7561463322,43093.55,0.0,1.0500000000000007,1.4227986384410334,11.4,1.4227986384410334,11.4,43093.55,0.0,0.0,0.0,0.0,0.0,0.0,1.0500000000000007,0.0,0.0,0.0,0.0,0.0,0.0,0.0,0.0,0.0,0.0,38.160000000000075,nan,nan,nan,nan,nan,nan,0.0,nan,0.0,nan,0.0,nan,1.0600000000000007
0.0,0.0,0.0,0.0,0.0,0.0,0.0,0.0,0.0,0.0,0.6723008278682171,nan,0.0,nan,nan,nan,nan,nan,0.0,nan,0.0,nan,nan,2479338.7561463322,43093.55,0.0,1.0600000000000007,1.4153139508274148,11.4,1.4153139508274148,11.4,43093.55,0.0,0.0,0.0,0.0,0.0,0.0,1.0600000000000007,0.0,0.0,0.0,0.0,0.0,0.0,0.0,0.0,0.0,0.0,38.52000000000008,nan,nan,nan,nan,nan,nan,0.0,nan,0.0,nan,0.0,nan,1.0700000000000007
0.0,0.0,0.0,0.0,0.0,0.0,0.0,0.0,0.0,0.0,0.6785840131753967,nan,0.0,nan,nan,nan,nan,nan,0.0,nan,0.0,nan,nan,2479338.7561463322,43093.55,0.0,1.0700000000000007,1.4077698794872513,11.4,1.4077698794872513,11.4,43093.55,0.0,0.0,0.0,0.0,0.0,0.0,1.0700000000000007,0.0,0.0,0.0,0.0,0.0,0.0,0.0,0.0,0.0,0.0,38.88000000000008,nan,nan,nan,nan,nan,nan,0.0,nan,0.0,nan,0.0,nan,1.0800000000000007
0.0,0.0,0.0,0.0,0.0,0.0,0.0,0.0,0.0,0.0,0.6848671984825764,nan,0.0,nan,nan,nan,nan,nan,0.0,nan,0.0,nan,nan,2479338.7561463322,43093.55,0.0,1.0800000000000007,1.400166740954601,11.4,1.400166740954601,11.4,43093.55,0.0,0.0,0.0,0.0,0.0,0.0,1.0800000000000007,0.0,0.0,0.0,0.0,0.0,0.0,0.0,0.0,0.0,0.0,39.24000000000008,nan,nan,nan,nan,nan,nan,0.0,nan,0.0,nan,0.0,nan,1.0900000000000007
0.0,0.0,0.0,0.0,0.0,0.0,0.0,0.0,0.0,0.0,0.691150383789756,nan,0.0,nan,nan,nan,nan,nan,0.0,nan,0.0,nan,nan,2479338.7561463322,43093.55,0.0,1.0900000000000007,1.3925048542418639,11.4,1.3925048542418639,11.4,43093.55,0.0,0.0,0.0,0.0,0.0,0.0,1.0900000000000007,0.0,0.0,0.0,0.0,0.0,0.0,0.0,0.0,0.0,0.0,39.60000000000009,nan,nan,nan,nan,nan,nan,0.0,nan,0.0,nan,0.0,nan,1.1000000000000008
0.0,0.0,0.0,0.0,0.0,0.0,0.0,0.0,0.0,0.0,0.6974335690969357,nan,0.0,nan,nan,nan,nan,nan,0.0,nan,0.0,nan,nan,2479338.7561463322,43093.55,0.0,1.1000000000000008,1.3847845408263946,11.4,1.3847845408263946,11.4,43093.55,0.0,0.0,0.0,0.0,0.0,0.0,1.1000000000000008,0.0,0.0,0.0,0.0,0.0,0.0,0.0,0.0,0.0,0.0,39.96000000000009,nan,nan,nan,nan,nan,nan,0.0,nan,0.0,nan,0.0,nan,1.1100000000000008
0.0,0.0,0.0,0.0,0.0,0.0,0.0,0.0,0.0,0.0,0.7037167544041153,nan,0.0,nan,nan,nan,nan,nan,0.0,nan,0.0,nan,nan,2479338.7561463322,43093.55,0.0,1.1100000000000008,1.3770061246370153,11.4,1.3770061246370153,11.4,43093.55,0.0,0.0,0.0,0.0,0.0,0.0,1.1100000000000008,0.0,0.0,0.0,0.0,0.0,0.0,0.0,0.0,0.0,0.0,40.32000000000009,nan,nan,nan,nan,nan,nan,0.0,nan,0.0,nan,0.0,nan,1.1200000000000008
0.0,0.0,0.0,0.0,0.0,0.0,0.0,0.0,0.0,0.0,0.7099999397112949,nan,0.0,nan,nan,nan,nan,nan,0.0,nan,0.0,nan,nan,2479338.7561463322,43093.55,0.0,1.1200000000000008,1.3691699320404234,11.4,1.3691699320404234,11.4,43093.55,0.0,0.0,0.0,0.0,0.0,0.0,1.1200000000000008,0.0,0.0,0.0,0.0,0.0,0.0,0.0,0.0,0.0,0.0,40.6800000000001,nan,nan,nan,nan,nan,nan,0.0,nan,0.0,nan,0.0,nan,1.1300000000000008
0.0,0.0,0.0,0.0,0.0,0.0,0.0,0.0,0.0,0.0,0.7162831250184746,nan,0.0,nan,nan,nan,nan,nan,0.0,nan,0.0,nan,nan,2479338.7561463322,43093.55,0.0,1.1300000000000008,1.361276291827498,11.4,1.361276291827498,11.4,43093.55,0.0,0.0,0.0,0.0,0.0,0.0,1.1300000000000008,0.0,0.0,0.0,0.0,0.0,0.0,0.0,0.0,0.0,0.0,41.0400000000001,nan,nan,nan,nan,nan,nan,0.0,nan,0.0,nan,0.0,nan,1.1400000000000008
0.0,0.0,0.0,0.0,0.0,0.0,0.0,0.0,0.0,0.0,0.7225663103256542,nan,0.0,nan,nan,nan,nan,nan,0.0,nan,0.0,nan,nan,2479338.7561463322,43093.55,0.0,1.1400000000000008,1.353325535199505,11.4,1.353325535199505,11.4,43093.55,0.0,0.0,0.0,0.0,0.0,0.0,1.1400000000000008,0.0,0.0,0.0,0.0,0.0,0.0,0.0,0.0,0.0,0.0,41.400000000000105,nan,nan,nan,nan,nan,nan,0.0,nan,0.0,nan,0.0,nan,1.1500000000000008
0.0,0.0,0.0,0.0,0.0,0.0,0.0,0.0,0.0,0.0,0.7288494956328339,nan,0.0,nan,nan,nan,nan,nan,0.0,nan,0.0,nan,nan,2479338.7561463322,43093.55,0.0,1.1500000000000008,1.3453179957541996,11.4,1.3453179957541996,11.4,43093.55,0.0,0.0,0.0,0.0,0.0,0.0,1.1500000000000008,0.0,0.0,0.0,0.0,0.0,0.0,0.0,0.0,0.0,0.0,41.760000000000105,nan,nan,nan,nan,nan,nan,0.0,nan,0.0,nan,0.0,nan,1.1600000000000008
0.0,0.0,0.0,0.0,0.0,0.0,0.0,0.0,0.0,0.0,0.7351326809400135,nan,0.0,nan,nan,nan,nan,nan,0.0,nan,0.0,nan,nan,2479338.7561463322,43093.55,0.0,1.1600000000000008,1.3372540094718306,11.4,1.3372540094718306,11.4,43093.55,0.0,0.0,0.0,0.0,0.0,0.0,1.1600000000000008,0.0,0.0,0.0,0.0,0.0,0.0,0.0,0.0,0.0,0.0,42.12000000000011,nan,nan,nan,nan,nan,nan,0.0,nan,0.0,nan,0.0,nan,1.1700000000000008
0.0,0.0,0.0,0.0,0.0,0.0,0.0,0.0,0.0,0.0,0.7414158662471931,nan,0.0,nan,nan,nan,nan,nan,0.0,nan,0.0,nan,nan,2479338.7561463322,43093.55,0.0,1.1700000000000008,1.329133914701042,11.4,1.329133914701042,11.4,43093.55,0.0,0.0,0.0,0.0,0.0,0.0,1.1700000000000008,0.0,0.0,0.0,0.0,0.0,0.0,0.0,0.0,0.0,0.0,42.48000000000011,nan,nan,nan,nan,nan,nan,0.0,nan,0.0,nan,0.0,nan,1.1800000000000008
0.0,0.0,0.0,0.0,0.0,0.0,0.0,0.0,0.0,0.0,0.7476990515543728,nan,0.0,nan,nan,nan,nan,nan,0.0,nan,0.0,nan,nan,2479338.7561463322,43093.55,0.0,1.1800000000000008,1.320958052144677,11.4,1.320958052144677,11.4,43093.55,0.0,0.0,0.0,0.0,0.0,0.0,1.1800000000000008,0.0,0.0,0.0,0.0,0.0,0.0,0.0,0.0,0.0,0.0,42.84000000000012,nan,nan,nan,nan,nan,nan,0.0,nan,0.0,nan,0.0,nan,1.1900000000000008
0.0,0.0,0.0,0.0,0.0,0.0,0.0,0.0,0.0,0.0,0.7539822368615524,nan,0.0,nan,nan,nan,nan,nan,0.0,nan,0.0,nan,nan,2479338.7561463322,43093.55,0.0,1.1900000000000008,1.3127267648454832,11.4,1.3127267648454832,11.4,43093.55,0.0,0.0,0.0,0.0,0.0,0.0,1.1900000000000008,0.0,0.0,0.0,0.0,0.0,0.0,0.0,0.0,0.0,0.0,43.20000000000012,nan,nan,nan,nan,nan,nan,0.0,nan,0.0,nan,0.0,nan,1.2000000000000008
0.0,0.0,0.0,0.0,0.0,0.0,0.0,0.0,0.0,0.0,0.760265422168732,nan,0.0,nan,nan,nan,nan,nan,0.0,nan,0.0,nan,nan,2479338.7561463322,43093.55,0.0,1.2000000000000008,1.3044403981717194,11.4,1.3044403981717194,11.4,43093.55,0.0,0.0,0.0,0.0,0.0,0.0,1.2000000000000008,0.0,0.0,0.0,0.0,0.0,0.0,0.0,0.0,0.0,0.0,43.560000000000116,nan,nan,nan,nan,nan,nan,0.0,nan,0.0,nan,0.0,nan,1.2100000000000009
0.0,0.0,0.0,0.0,0.0,0.0,0.0,0.0,0.0,0.0,0.7665486074759117,nan,0.0,nan,nan,nan,nan,nan,0.0,nan,0.0,nan,nan,2479338.7561463322,43093.55,0.0,1.2100000000000009,1.2960992998026628,11.4,1.2960992998026628,11.4,43093.55,0.0,0.0,0.0,0.0,0.0,0.0,1.2100000000000009,0.0,0.0,0.0,0.0,0.0,0.0,0.0,0.0,0.0,0.0,43.92000000000013,nan,nan,nan,nan,nan,nan,0.0,nan,0.0,nan,0.0,nan,1.2200000000000009
0.0,0.0,0.0,0.0,0.0,0.0,0.0,0.0,0.0,0.0,0.7728317927830913,nan,0.0,nan,nan,nan,nan,nan,0.0,nan,0.0,nan,nan,2479338.7561463322,43093.55,0.0,1.2200000000000009,1.2877038197140238,11.4,1.2877038197140238,11.4,43093.55,0.0,0.0,0.0,0.0,0.0,0.0,1.2200000000000009,0.0,0.0,0.0,0.0,0.0,0.0,0.0,0.0,0.0,0.0,44.28000000000013,nan,nan,nan,nan,nan,nan,0.0,nan,0.0,nan,0.0,nan,1.2300000000000009
0.0,0.0,0.0,0.0,0.0,0.0,0.0,0.0,0.0,0.0,0.779114978090271,nan,0.0,nan,nan,nan,nan,nan,0.0,nan,0.0,nan,nan,2479338.7561463322,43093.55,0.0,1.2300000000000009,1.2792543101632596,11.4,1.2792543101632596,11.4,43093.55,0.0,0.0,0.0,0.0,0.0,0.0,1.2300000000000009,0.0,0.0,0.0,0.0,0.0,0.0,0.0,0.0,0.0,0.0,44.64000000000013,nan,nan,nan,nan,nan,nan,0.0,nan,0.0,nan,0.0,nan,1.2400000000000009
0.0,0.0,0.0,0.0,0.0,0.0,0.0,0.0,0.0,0.0,0.7853981633974506,nan,0.0,nan,nan,nan,nan,nan,0.0,nan,0.0,nan,nan,2479338.7561463322,43093.55,0.0,1.2400000000000009,1.2707511256747956,11.4,1.2707511256747956,11.4,43093.55,0.0,0.0,0.0,0.0,0.0,0.0,1.2400000000000009,0.0,0.0,0.0,0.0,0.0,0.0,0.0,0.0,0.0,0.0,45.000000000000135,nan,nan,nan,nan,nan,nan,0.0,nan,0.0,nan,0.0,nan,1.2500000000000009
0.0,0.0,0.0,0.0,0.0,0.0,0.0,0.0,0.0,0.0,0.7916813487046302,nan,0.0,nan,nan,nan,nan,nan,0.0,nan,0.0,nan,nan,2479338.7561463322,43093.55,0.0,1.2500000000000009,1.2621946230251486,11.4,1.2621946230251486,11.4,43093.55,0.0,0.0,0.0,0.0,0.0,0.0,1.2500000000000009,0.0,0.0,0.0,0.0,0.0,0.0,0.0,0.0,0.0,0.0,45.360000000000134,nan,nan,nan,nan,nan,nan,0.0,nan,0.0,nan,0.0,nan,1.260000000000001
0.0,0.0,0.0,0.0,0.0,0.0,0.0,0.0,0.0,0.0,0.7979645340118099,nan,0.0,nan,nan,nan,nan,nan,0.0,nan,0.0,nan,nan,2479338.7561463322,43093.55,0.0,1.260000000000001,1.2535851612279592,11.4,1.2535851612279592,11.4,43093.55,0.0,0.0,0.0,0.0,0.0,0.0,1.260000000000001,0.0,0.0,0.0,0.0,0.0,0.0,0.0,0.0,0.0,0.0,45.720000000000134,nan,nan,nan,nan,nan,nan,0.0,nan,0.0,nan,0.0,nan,1.270000000000001
0.0,0.0,0.0,0.0,0.0,0.0,0.0,0.0,0.0,0.0,0.8042477193189895,nan,0.0,nan,nan,nan,nan,nan,0.0,nan,0.0,nan,nan,2479338.7561463322,43093.55,0.0,1.270000000000001,1.2449231015189268,11.4,1.2449231015189268,11.4,43093.55,0.0,0.0,0.0,0.0,0.0,0.0,1.270000000000001,0.0,0.0,0.0,0.0,0.0,0.0,0.0,0.0,0.0,0.0,46.08000000000015,nan,nan,nan,nan,nan,nan,0.0,nan,0.0,nan,0.0,nan,1.280000000000001
0.0,0.0,0.0,0.0,0.0,0.0,0.0,0.0,0.0,0.0,0.8105309046261692,nan,0.0,nan,nan,nan,nan,nan,0.0,nan,0.0,nan,nan,2479338.7561463322,43093.55,0.0,1.280000000000001,1.2362088073406539,11.4,1.2362088073406539,11.4,43093.55,0.0,0.0,0.0,0.0,0.0,0.0,1.280000000000001,0.0,0.0,0.0,0.0,0.0,0.0,0.0,0.0,0.0,0.0,46.44000000000015,nan,nan,nan,nan,nan,nan,0.0,nan,0.0,nan,0.0,nan,1.290000000000001
0.0,0.0,0.0,0.0,0.0,0.0,0.0,0.0,0.0,0.0,0.8168140899333488,nan,0.0,nan,nan,nan,nan,nan,0.0,nan,0.0,nan,nan,2479338.7561463322,43093.55,0.0,1.290000000000001,1.2274426443273951,11.4,1.2274426443273951,11.4,43093.55,0.0,0.0,0.0,0.0,0.0,0.0,1.290000000000001,0.0,0.0,0.0,0.0,0.0,0.0,0.0,0.0,0.0,0.0,46.800000000000146,nan,nan,nan,nan,nan,nan,0.0,nan,0.0,nan,0.0,nan,1.300000000000001
0.0,0.0,0.0,0.0,0.0,0.0,0.0,0.0,0.0,0.0,0.8230972752405284,nan,0.0,nan,nan,nan,nan,nan,0.0,nan,0.0,nan,nan,2479338.7561463322,43093.55,0.0,1.300000000000001,1.2186249802897184,11.4,1.2186249802897184,11.4,43093.55,0.0,0.0,0.0,0.0,0.0,0.0,1.300000000000001,0.0,0.0,0.0,0.0,0.0,0.0,0.0,0.0,0.0,0.0,47.16000000000015,nan,nan,nan,nan,nan,nan,0.0,nan,0.0,nan,0.0,nan,1.310000000000001
0.0,0.0,0.0,0.0,0.0,0.0,0.0,0.0,0.0,0.0,0.8293804605477081,nan,0.0,nan,nan,nan,nan,nan,0.0,nan,0.0,nan,nan,2479338.7561463322,43093.55,0.0,1.310000000000001,1.2097561851990701,11.4,1.2097561851990701,11.4,43093.55,0.0,0.0,0.0,0.0,0.0,0.0,1.310000000000001,0.0,0.0,0.0,0.0,0.0,0.0,0.0,0.0,0.0,0.0,47.52000000000016,nan,nan,nan,nan,nan,nan,0.0,nan,0.0,nan,0.0,nan,1.320000000000001
0.0,0.0,0.0,0.0,0.0,0.0,0.0,0.0,0.0,0.0,0.8356636458548877,nan,0.0,nan,nan,nan,nan,nan,0.0,nan,0.0,nan,nan,2479338.7561463322,43093.55,0.0,1.320000000000001,1.2008366311722536,11.4,1.2008366311722536,11.4,43093.55,0.0,0.0,0.0,0.0,0.0,0.0,1.320000000000001,0.0,0.0,0.0,0.0,0.0,0.0,0.0,0.0,0.0,0.0,47.88000000000016,nan,nan,nan,nan,nan,nan,0.0,nan,0.0,nan,0.0,nan,1.330000000000001
0.0,0.0,0.0,0.0,0.0,0.0,0.0,0.0,0.0,0.0,0.8419468311620674,nan,0.0,nan,nan,nan,nan,nan,0.0,nan,0.0,nan,nan,2479338.7561463322,43093.55,0.0,1.330000000000001,1.1918666924558141,11.4,1.1918666924558141,11.4,43093.55,0.0,0.0,0.0,0.0,0.0,0.0,1.330000000000001,0.0,0.0,0.0,0.0,0.0,0.0,0.0,0.0,0.0,0.0,48.24000000000016,nan,nan,nan,nan,nan,nan,0.0,nan,0.0,nan,0.0,nan,1.340000000000001
0.0,0.0,0.0,0.0,0.0,0.0,0.0,0.0,0.0,0.0,0.848230016469247,nan,0.0,nan,nan,nan,nan,nan,0.0,nan,0.0,nan,nan,2479338.7561463322,43093.55,0.0,1.340000000000001,1.182846745410338,11.4,1.182846745410338,11.4,43093.55,0.0,0.0,0.0,0.0,0.0,0.0,1.340000000000001,0.0,0.0,0.0,0.0,0.0,0.0,0.0,0.0,0.0,0.0,48.600000000000165,nan,nan,nan,nan,nan,nan,0.0,nan,0.0,nan,0.0,nan,1.350000000000001
0.0,0.0,0.0,0.0,0.0,0.0,0.0,0.0,0.0,0.0,0.8545132017764266,nan,0.0,nan,nan,nan,nan,nan,0.0,nan,0.0,nan,nan,2479338.7561463322,43093.55,0.0,1.350000000000001,1.1737771684946596,11.4,1.1737771684946596,11.4,43093.55,0.0,0.0,0.0,0.0,0.0,0.0,1.350000000000001,0.0,0.0,0.0,0.0,0.0,0.0,0.0,0.0,0.0,0.0,48.960000000000164,nan,nan,nan,nan,nan,nan,0.0,nan,0.0,nan,0.0,nan,1.360000000000001
0.0,0.0,0.0,0.0,0.0,0.0,0.0,0.0,0.0,0.0,0.8607963870836063,nan,0.0,nan,nan,nan,nan,nan,0.0,nan,0.0,nan,nan,2479338.7561463322,43093.55,0.0,1.360000000000001,1.164658342249984,11.4,1.164658342249984,11.4,43093.55,0.0,0.0,0.0,0.0,0.0,0.0,1.360000000000001,0.0,0.0,0.0,0.0,0.0,0.0,0.0,0.0,0.0,0.0,49.320000000000164,nan,nan,nan,nan,nan,nan,0.0,nan,0.0,nan,0.0,nan,1.370000000000001
0.0,0.0,0.0,0.0,0.0,0.0,0.0,0.0,0.0,0.0,0.8670795723907859,nan,0.0,nan,nan,nan,nan,nan,0.0,nan,0.0,nan,nan,2479338.7561463322,43093.55,0.0,1.370000000000001,1.1554906492839179,11.4,1.1554906492839179,11.4,43093.55,0.0,0.0,0.0,0.0,0.0,0.0,1.370000000000001,0.0,0.0,0.0,0.0,0.0,0.0,0.0,0.0,0.0,0.0,49.68000000000018,nan,nan,nan,nan,nan,nan,0.0,nan,0.0,nan,0.0,nan,1.380000000000001
0.0,0.0,0.0,0.0,0.0,0.0,0.0,0.0,0.0,0.0,0.8733627576979656,nan,0.0,nan,nan,nan,nan,nan,0.0,nan,0.0,nan,nan,2479338.7561463322,43093.55,0.0,1.380000000000001,1.146274474254418,11.4,1.146274474254418,11.4,43093.55,0.0,0.0,0.0,0.0,0.0,0.0,1.380000000000001,0.0,0.0,0.0,0.0,0.0,0.0,0.0,0.0,0.0,0.0,50.04000000000018,nan,nan,nan,nan,nan,nan,0.0,nan,0.0,nan,0.0,nan,1.390000000000001
0.0,0.0,0.0,0.0,0.0,0.0,0.0,0.0,0.0,0.0,0.8796459430051452,nan,0.0,nan,nan,nan,nan,nan,0.0,nan,0.0,nan,nan,2479338.7561463322,43093.55,0.0,1.390000000000001,1.1370102038536507,11.4,1.1370102038536507,11.4,43093.55,0.0,0.0,0.0,0.0,0.0,0.0,1.390000000000001,0.0,0.0,0.0,0.0,0.0,0.0,0.0,0.0,0.0,0.0,50.400000000000176,nan,nan,nan,nan,nan,nan,0.0,nan,0.0,nan,0.0,nan,1.400000000000001
0.0,0.0,0.0,0.0,0.0,0.0,0.0,0.0,0.0,0.0,0.8859291283123248,nan,0.0,nan,nan,nan,nan,nan,0.0,nan,0.0,nan,nan,2479338.7561463322,43093.55,0.0,1.400000000000001,1.1276982267917672,11.4,1.1276982267917672,11.4,43093.55,0.0,0.0,0.0,0.0,0.0,0.0,1.400000000000001,0.0,0.0,0.0,0.0,0.0,0.0,0.0,0.0,0.0,0.0,50.76000000000018,nan,nan,nan,nan,nan,nan,0.0,nan,0.0,nan,0.0,nan,1.410000000000001
0.0,0.0,0.0,0.0,0.0,0.0,0.0,0.0,0.0,0.0,0.8922123136195045,nan,0.0,nan,nan,nan,nan,nan,0.0,nan,0.0,nan,nan,2479338.7561463322,43093.55,0.0,1.410000000000001,1.1183389337805945,11.4,1.1183389337805945,11.4,43093.55,0.0,0.0,0.0,0.0,0.0,0.0,1.410000000000001,0.0,0.0,0.0,0.0,0.0,0.0,0.0,0.0,0.0,0.0,51.12000000000019,nan,nan,nan,nan,nan,nan,0.0,nan,0.0,nan,0.0,nan,1.420000000000001
0.0,0.0,0.0,0.0,0.0,0.0,0.0,0.0,0.0,0.0,0.8984954989266841,nan,0.0,nan,nan,nan,nan,nan,0.0,nan,0.0,nan,nan,2479338.7561463322,43093.55,0.0,1.420000000000001,1.108932717517242,11.4,1.108932717517242,11.4,43093.55,0.0,0.0,0.0,0.0,0.0,0.0,1.420000000000001,0.0,0.0,0.0,0.0,0.0,0.0,0.0,0.0,0.0,0.0,51.48000000000019,nan,nan,nan,nan,nan,nan,0.0,nan,0.0,nan,0.0,nan,1.430000000000001
0.0,0.0,0.0,0.0,0.0,0.0,0.0,0.0,0.0,0.0,0.9047786842338638,nan,0.0,nan,nan,nan,nan,nan,0.0,nan,0.0,nan,nan,2479338.7561463322,43093.55,0.0,1.430000000000001,1.0994799726676234,11.4,1.0994799726676234,11.4,43093.55,0.0,0.0,0.0,0.0,0.0,0.0,1.430000000000001,0.0,0.0,0.0,0.0,0.0,0.0,0.0,0.0,0.0,0.0,51.840000000000195,nan,nan,nan,nan,nan,nan,0.0,nan,0.0,nan,0.0,nan,1.440000000000001
0.0,0.0,0.0,0.0,0.0,0.0,0.0,0.0,0.0,0.0,0.9110618695410434,nan,0.0,nan,nan,nan,nan,nan,0.0,nan,0.0,nan,nan,2479338.7561463322,43093.55,0.0,1.440000000000001,1.0899810958498992,11.4,1.0899810958498992,11.4,43093.55,0.0,0.0,0.0,0.0,0.0,0.0,1.440000000000001,0.0,0.0,0.0,0.0,0.0,0.0,0.0,0.0,0.0,0.0,52.200000000000195,nan,nan,nan,nan,nan,nan,0.0,nan,0.0,nan,0.0,nan,1.450000000000001
0.0,0.0,0.0,0.0,0.0,0.0,0.0,0.0,0.0,0.0,0.917345054848223,nan,0.0,nan,nan,nan,nan,nan,0.0,nan,0.0,nan,nan,2479338.7561463322,43093.55,0.0,1.450000000000001,1.0804364856178343,11.4,1.0804364856178343,11.4,43093.55,0.0,0.0,0.0,0.0,0.0,0.0,1.450000000000001,0.0,0.0,0.0,0.0,0.0,0.0,0.0,0.0,0.0,0.0,52.560000000000194,nan,nan,nan,nan,nan,nan,0.0,nan,0.0,nan,0.0,nan,1.460000000000001
0.0,0.0,0.0,0.0,0.0,0.0,0.0,0.0,0.0,0.0,0.9236282401554027,nan,0.0,nan,nan,nan,nan,nan,0.0,nan,0.0,nan,nan,2479338.7561463322,43093.55,0.0,1.460000000000001,1.0708465424440754,11.4,1.0708465424440754,11.4,43093.55,0.0,0.0,0.0,0.0,0.0,0.0,1.460000000000001,0.0,0.0,0.0,0.0,0.0,0.0,0.0,0.0,0.0,0.0,52.92000000000021,nan,nan,nan,nan,nan,nan,0.0,nan,0.0,nan,0.0,nan,1.470000000000001
0.0,0.0,0.0,0.0,0.0,0.0,0.0,0.0,0.0,0.0,0.9299114254625823,nan,0.0,nan,nan,nan,nan,nan,0.0,nan,0.0,nan,nan,2479338.7561463322,43093.55,0.0,1.470000000000001,1.0612116687033484,11.4,1.0612116687033484,11.4,43093.55,0.0,0.0,0.0,0.0,0.0,0.0,1.470000000000001,0.0,0.0,0.0,0.0,0.0,0.0,0.0,0.0,0.0,0.0,53.28000000000021,nan,nan,nan,nan,nan,nan,0.0,nan,0.0,nan,0.0,nan,1.480000000000001
0.0,0.0,0.0,0.0,0.0,0.0,0.0,0.0,0.0,0.0,0.936194610769762,nan,0.0,nan,nan,nan,nan,nan,0.0,nan,0.0,nan,nan,2479338.7561463322,43093.55,0.0,1.480000000000001,1.051532268655575,11.4,1.051532268655575,11.4,43093.55,0.0,0.0,0.0,0.0,0.0,0.0,1.480000000000001,0.0,0.0,0.0,0.0,0.0,0.0,0.0,0.0,0.0,0.0,53.64000000000021,nan,nan,nan,nan,nan,nan,0.0,nan,0.0,nan,0.0,nan,1.490000000000001
0.0,0.0,0.0,0.0,0.0,0.0,0.0,0.0,0.0,0.0,0.9424777960769416,nan,0.0,nan,nan,nan,nan,nan,0.0,nan,0.0,nan,nan,2479338.7561463322,43093.55,0.0,1.490000000000001,1.0418087484289122,11.4,1.0418087484289122,11.4,43093.55,0.0,0.0,0.0,0.0,0.0,0.0,1.490000000000001,0.0,0.0,0.0,0.0,0.0,0.0,0.0,0.0,0.0,0.0,54.000000000000206,nan,nan,nan,nan,nan,nan,0.0,nan,0.0,nan,0.0,nan,1.500000000000001
0.0,0.0,0.0,0.0,0.0,0.0,0.0,0.0,0.0,0.0,0.9487609813841212,nan,0.0,nan,nan,nan,nan,nan,0.0,nan,0.0,nan,nan,2479338.7561463322,43093.55,0.0,1.500000000000001,1.0320415160027103,11.4,1.0320415160027103,11.4,43093.55,0.0,0.0,0.0,0.0,0.0,0.0,1.500000000000001,0.0,0.0,0.0,0.0,0.0,0.0,0.0,0.0,0.0,0.0,54.36000000000021,nan,nan,nan,nan,nan,nan,0.0,nan,0.0,nan,0.0,nan,1.5100000000000011
0.0,0.0,0.0,0.0,0.0,0.0,0.0,0.0,0.0,0.0,0.9550441666913009,nan,0.0,nan,nan,nan,nan,nan,0.0,nan,0.0,nan,nan,2479338.7561463322,43093.55,0.0,1.5100000000000011,1.0222309811903953,11.4,1.0222309811903953,11.4,43093.55,0.0,0.0,0.0,0.0,0.0,0.0,1.5100000000000011,0.0,0.0,0.0,0.0,0.0,0.0,0.0,0.0,0.0,0.0,54.72000000000021,nan,nan,nan,nan,nan,nan,0.0,nan,0.0,nan,0.0,nan,1.5200000000000011
0.0,0.0,0.0,0.0,0.0,0.0,0.0,0.0,0.0,0.0,0.9613273519984805,nan,0.0,nan,nan,nan,nan,nan,0.0,nan,0.0,nan,nan,2479338.7561463322,43093.55,0.0,1.5200000000000011,1.0123775556222745,11.4,1.0123775556222745,11.4,43093.55,0.0,0.0,0.0,0.0,0.0,0.0,1.5200000000000011,0.0,0.0,0.0,0.0,0.0,0.0,0.0,0.0,0.0,0.0,55.08000000000022,nan,nan,nan,nan,nan,nan,0.0,nan,0.0,nan,0.0,nan,1.5300000000000011
0.0,0.0,0.0,0.0,0.0,0.0,0.0,0.0,0.0,0.0,0.9676105373056602,nan,0.0,nan,nan,nan,nan,nan,0.0,nan,0.0,nan,nan,2479338.7561463322,43093.55,0.0,1.5300000000000011,1.0024816527282656,11.4,1.0024816527282656,11.4,43093.55,0.0,0.0,0.0,0.0,0.0,0.0,1.5300000000000011,0.0,0.0,0.0,0.0,0.0,0.0,0.0,0.0,0.0,0.0,55.440000000000225,nan,nan,nan,nan,nan,nan,0.0,nan,0.0,nan,0.0,nan,1.5400000000000011
