AeroFx,AeroFy,AeroFz,AeroMx,AeroMy,AeroMz,AeroThrust,GenPwr,GenTq,HSS_Spd,HydroFx,HydroFy,HydroFz,HydroMx,HydroMy,HydroMz,MoorFx,MoorFy,MoorFz,MoorMx,MoorMy,MoorMz,PitchCmd,PtfmHeave,PtfmHeaveVel,PtfmPitch,PtfmPitchVel,PtfmRoll,PtfmRollVel,PtfmSurge,PtfmSurgeVel,PtfmSway,PtfmSwayVel,PtfmYaw,PtfmYawVel,RotSpeed,Time,WaveElev,WindSpeed,dof_B1E1,dof_B1F1,dof_B1F2,dof_B2E1,dof_B2F1,dof_B2F2,dof_B3E1,dof_B3F1,dof_B3F2,dof_DrTr,dof_GenAz,dof_Heave,dof_NacYaw,dof_Pitch,dof_Roll,dof_Surge,dof_Sway,dof_TwrFA1,dof_TwrFA2,dof_TwrSS1,dof_TwrSS2,dof_Yaw,env_wave_elev,env_wind_speed,gen_torque,qB1E1,qB1F1,qB1F2,qB2E1,qB2F1,qB2F2,qB3E1,qB3F1,qB3F2,qDrTr,qGeAz,qHv,qP,qR,qSg,qSw,qTFA1,qTFA2,qTSS1,qTSS2,qY,qyaw,thrust,time
-4509.126135756859,0.0,0.0,0.0,-405821.35221811745,0.0,-4509.126135756859,2479338.7561463322,43093.55,60.94689747964199,-662255.9385189521,0.0,-13118462.846182412,-6.146728992462158e-08,-45669366.12328332,-4.190951585769653e-08,0.0,0.0,0.0,0.0,0.0,0.0,0.0,0.0,0.0,0.0,0.0,0.0,0.0,0.0,0.0,0.0,0.0,0.0,0.0,0.6283185307179586,0.0,1.83,1.8782693490496025,0.0,0.0,0.0,0.0,0.0,0.0,0.0,0.0,0.0,0.0,0.01884955592153876,-0.0003108529626993941,0.0,-2.7463585592678443e-06,-2.7926042191980854e-21,-5.542289014176389e-05,3.270300618547456e-20,0.0010663730479514172,0.0,-0.0008084760770400278,0.0,-1.3300320339862753e-22,0.0,0.0,0.0,0.0,0.0,0.0,0.0,0.0,0.0,0.0,0.0,0.0,0.0,1.08,-0.0003108529626993941,-0.00015735475447567685,-1.6000443561047694e-19,-5.542289014176389e-05,3.270300618547456e-20,0.0010663730479514172,0.0,-0.0008084760770400278,0.0,-7.620522216461405e-21,0.0,0.0,0.03
-4510.9393510694845,0.0,0.0,0.0,-405984.5415962537,0.0,-4510.9393510694845,2479338.7561463322,43093.55,60.94689747964199,-922827.035234109,-1.0041391291023948e-13,-13077958.478449183,-8.102506399154663e-08,-37245605.60552087,-4.470348358154297e-08,0.0,0.0,0.0,0.0,0.0,0.0,0.0,-0.0008629936308883092,-0.034494361201280827,-7.521664947832561e-06,-0.00029548084208462814,-7.73627679801731e-21,-3.0354663572783575e-19,-0.0001551716009930258,-0.006267017886631019,9.059553220550498e-20,3.554641340912253e-18,-3.4559389543039896e-22,-1.3190573618995599e-20,0.6283185307179586,0.05,1.8290402915511532,2.1627840547240527,0.0,0.0,0.0,0.0,0.0,0.0,0.0,0.0,0.0,0.0,0.03769911184307752,-0.0012423377940517974,0.0,-1.0753476275453333e-05,-1.1438583403978107e-20,-0.00022430900614579469,1.339509109229474e-19,0.003850207509836722,0.0,-0.002762153128813102,0.0,-4.905799116414518e-22,0.0,0.0,0.0,0.0,0.0,0.0,0.0,0.0,0.0,0.0,0.0,0.0,0.0,2.16,-0.0012423377940517974,-0.0006161288056775358,-6.553825526563323e-19,-0.00022430900614579469,1.339509109229474e-19,0.003850207509836722,0.0,-0.002762153128813102,0.0,-2.810815845095603e-20,0.0,0.0,0.060000000000000005
-4510.9393510694845,0.0,0.0,0.0,-405984.5415962537,0.0,-4510.9393510694845,2479338.7561463322,43093.55,60.94689747964199,-922827.035234109,-1.0041391291023948e-13,-13077958.478449183,-8.102506399154663e-08,-37245605.60552087,-4.470348358154297e-08,0.0,0.0,0.0,0.0,0.0,0.0,0.0,-0.0008629936308883092,-0.034494361201280827,-7.521664947832561e-06,-0.00029548084208462814,-7.73627679801731e-21,-3.0354663572783575e-19,-0.0001551716009930258,-0.006267017886631019,9.059553220550498e-20,3.554641340912253e-18,-3.4559389543039896e-22,-1.3190573618995599e-20,0.6283185307179586,0.05,1.8290402915511532,2.1627840547240527,0.0,0.0,0.0,0.0,0.0,0.0,0.0,0.0,0.0,0.0,0.05654866776461627,-0.0027925396221740286,0.0,-2.3667813018510543e-05,-2.564913197000996e-20,-0.0005104420611560457,3.003587845420519e-19,0.00765424235268785,0.0,-0.00506452405293238,0.0,-1.0341866315073685e-21,0.0,0.0,0.0,0.0,0.0,0.0,0.0,0.0,0.0,0.0,0.0,0.0,0.0,3.2399999999999998,-0.0027925396221740286,-0.0013560657962654395,-1.4695870100556416e-18,-0.0005104420611560457,3.003587845420519e-19,0.00765424235268785,0.0,-0.00506452405293238,0.0,-5.92545292142235e-20,0.0,0.0,0.09
-4495.983483180739,0.0,0.0,0.0,-404638.5134862667,0.0,-4495.983483180739,2479338.7561463322,43093.55,60.94689747964199,-1182024.8110073237,-2.108561480996835e-13,-13022044.041160077,-6.51925802230835e-08,-28781063.89247055,-3.818422555923462e-08,0.0,0.0,0.0,0.0,0.0,0.0,0.0,-0.003446377065432457,-0.06880519187351093,-2.90020029653722e-05,-0.0005582910263654475,-3.181977885426902e-20,-6.411481631630116e-19,-0.0006325327919573624,-0.012886601660895104,3.726171983119385e-19,7.507825147482056e-18,-1.2633878718613065e-21,-2.3807936954907252e-20,0.6283185307179586,0.09999999999999999,1.8261621728060402,2.5780277650173216,0.0,0.0,0.0,0.0,0.0,0.0,0.0,0.0,0.0,0.0,0.07539822368615502,-0.004959139721628967,0.0,-4.1137165803308884e-05,-4.598183786607245e-20,-0.0009176683593412212,5.38453204310442e-19,0.011908237782690864,0.0,-0.00707368221319502,0.0,-1.775810099569791e-21,0.0,0.0,0.0,0.0,0.0,0.0,0.0,0.0,0.0,0.0,0.0,0.0,0.0,4.319999999999999,-0.004959139721628967,-0.0023569859816594957,-2.6345652439807866e-18,-0.0009176683593412212,5.38453204310442e-19,0.011908237782690864,0.0,-0.00707368221319502,0.0,-1.017464239220555e-19,0.0,0.0,0.11999999999999998
-4495.983483180739,0.0,0.0,0.0,-404638.5134862667,0.0,-4495.983483180739,2479338.7561463322,43093.55,60.94689747964199,-1182024.8110073237,-2.108561480996835e-13,-13022044.041160077,-6.51925802230835e-08,-28781063.89247055,-3.818422555923462e-08,0.0,0.0,0.0,0.0,0.0,0.0,0.0,-0.003446377065432457,-0.06880519187351093,-2.90020029653722e-05,-0.0005582910263654475,-3.181977885426902e-20,-6.411481631630116e-19,-0.0006325327919573624,-0.012886601660895104,3.726171983119385e-19,7.507825147482056e-18,-1.2633878718613065e-21,-2.3807936954907252e-20,0.6283185307179586,0.09999999999999999,1.8261621728060402,2.5780277650173216,0.0,0.0,0.0,0.0,0.0,0.0,0.0,0.0,0.0,0.0,0.09424777960769377,-0.00773941723954462,0.0,-6.281743011045222e-05,-7.264613719606456e-20,-0.0014500923428018742,8.506829686627458e-19,0.016353799538837376,0.0,-0.008526576512002844,0.0,-2.746113823749801e-21,0.0,0.0,0.0,0.0,0.0,0.0,0.0,0.0,0.0,0.0,0.0,0.0,0.0,5.399999999999999,-0.00773941723954462,-0.0035991736251869294,-4.162317059262844e-18,-0.0014500923428018742,8.506829686627458e-19,0.016353799538837376,0.0,-0.008526576512002844,0.0,-1.5734073216339602e-19,0.0,0.0,0.15
-4502.613713221895,0.0,0.0,0.0,-405235.2341899705,0.0,-4502.613713221895,2479338.7561463322,43093.55,60.94689747964199,-1439500.7236908502,-3.2210541031847664e-13,-12950812.146431118,-7.264316082000732e-08,-20288045.30085148,-4.842877388000488e-08,0.0,0.0,0.0,0.0,0.0,0.0,0.0,-0.00773941723954462,-0.10287030446080521,-6.281743011045222e-05,-0.0007891080056856117,-7.264613719606456e-20,-9.89614785261616e-19,-0.0014500923428018742,-0.01988207251251395,8.506829686627458e-19,1.1587905337821915e-17,-2.746113823749801e-21,-3.647378565988828e-20,0.6283185307179586,0.15,1.8213686625131607,2.37642043362986,0.0,0.0,0.0,0.0,0.0,0.0,0.0,0.0,0.0,0.0,0.11309733552923253,-0.01113025118762386,0.0,-8.837255044366363e-05,-1.0537714239105788e-19,-0.0021120798419952806,1.2339417171234611e-18,0.021070321708363652,0.0,-0.009572007100442644,0.0,-3.961133060443884e-21,0.0,0.0,0.0,0.0,0.0,0.0,0.0,0.0,0.0,0.0,0.0,0.0,0.0,6.479999999999999,-0.01113025118762386,-0.005063374165228897,-6.037665516156732e-18,-0.0021120798419952806,1.2339417171234611e-18,0.021070321708363652,0.0,-0.009572007100442644,0.0,-2.269562064531738e-19,0.0,0.0,0.18000000000000002
-4500.620920458065,0.0,0.0,0.0,-405055.8828412259,0.0,-4500.620920458065,2479338.7561463322,43093.55,60.94689747964199,-1694907.5185556666,-4.23054879938052e-13,-12864382.4980967,-4.470348358154297e-08,-11778736.855805323,-5.727633833885193e-08,0.0,0.0,0.0,0.0,0.0,0.0,0.0,-0.013728283748644779,-0.13662801130602445,-0.00010739753656049822,-0.0009889505906690718,-1.3060716701292172e-19,-1.3176416013437481e-18,-0.002627596785281856,-0.02728720690731516,1.529362049092015e-18,1.5428202107066416e-17,-4.8850809468042376e-21,-4.8985746626877107e-20,0.6283185307179586,0.20000000000000004,1.8146647884018339,2.4039976927425313,0.0,0.0,0.0,0.0,0.0,0.0,0.0,0.0,0.0,0.0,0.1319468914507713,-0.015128122677142525,0.0,-0.00011746929270912833,-1.4408697355547346e-19,-0.002908106506334819,1.6871956265334653e-18,0.026358628527538692,0.0,-0.010631439610829404,0.0,-5.398621691227343e-21,0.0,0.0,0.0,0.0,0.0,0.0,0.0,0.0,0.0,0.0,0.0,0.0,0.0,7.559999999999999,-0.015128122677142525,-0.006730494694619946,-8.255575467541731e-18,-0.002908106506334819,1.6871956265334653e-18,0.026358628527538692,0.0,-0.010631439610829404,0.0,-3.0931823809510543e-19,0.0,0.0,0.21000000000000005
-4500.620920458065,0.0,0.0,0.0,-405055.8828412259,0.0,-4500.620920458065,2479338.7561463322,43093.55,60.94689747964199,-1694907.5185556666,-4.23054879938052e-13,-12864382.4980967,-4.470348358154297e-08,-11778736.855805323,-5.727633833885193e-08,0.0,0.0,0.0,0.0,0.0,0.0,0.0,-0.013728283748644779,-0.13662801130602445,-0.00010739753656049822,-0.0009889505906690718,-1.3060716701292172e-19,-1.3176416013437481e-18,-0.002627596785281856,-0.02728720690731516,1.529362049092015e-18,1.5428202107066416e-17,-4.8850809468042376e-21,-4.8985746626877107e-20,0.6283185307179586,0.20000000000000004,1.8146647884018339,2.4039976927425313,0.0,0.0,0.0,0.0,0.0,0.0,0.0,0.0,0.0,0.0,0.15079644737231004,-0.019729117379630623,0.0,-0.00014976996260099285,-1.8843028163916897e-19,-0.0038425391354135275,2.2063954298937572e-18,0.03255324434632366,0.0,-0.012172690288757936,0.0,-7.049288882194546e-21,0.0,0.0,0.0,0.0,0.0,0.0,0.0,0.0,0.0,0.0,0.0,0.0,0.0,8.639999999999999,-0.019729117379630623,-0.008581186754869071,-1.0796259870385831e-17,-0.0038425391354135275,2.2063954298937572e-18,0.03255324434632366,0.0,-0.012172690288757936,0.0,-4.0389450151824126e-19,0.0,0.0,0.24000000000000007
-4501.879975493078,0.0,0.0,0.0,-405169.1977943769,0.0,-4501.879975493078,2479338.7561463322,43093.55,60.94689747964199,-1947909.9892901096,-5.152690770062615e-13,-12762897.213033702,-6.426125764846802e-08,-3265359.7072137753,-2.1886080503463745e-08,0.0,0.0,0.0,0.0,0.0,0.0,0.0,-0.021396076485551946,-0.17001722820618737,-0.00016118906052528512,-0.001157343736135539,-2.0443844155841028e-19,-1.6293224675397942e-18,-0.004185488475635748,-0.035091428595587955,2.3938250065045603e-18,1.9076608364691972e-17,-7.640112108222395e-21,-5.976937394403909e-20,0.6283185307179586,0.25000000000000006,1.8060575819088087,2.347644839330892,0.0,0.0,0.0,0.0,0.0,0.0,0.0,0.0,0.0,0.0,0.1696460032938488,-0.024928928206106784,0.0,-0.00018492663578766925,-2.3836815034121748e-19,-0.004919452471291178,2.7910800272305088e-18,0.039851124845966236,0.0,-0.01450239827393478,0.0,-8.872992085783793e-21,0.0,0.0,0.0,0.0,0.0,0.0,0.0,0.0,0.0,0.0,0.0,0.0,0.0,9.719999999999999,-0.024928928206106784,-0.010595515750186376,-1.3657488984891655e-17,-0.004919452471291178,2.7910800272305088e-18,0.039851124845966236,0.0,-0.01450239827393478,0.0,-5.083849981683927e-19,0.0,0.0,0.2700000000000001
-4501.879975493078,0.0,0.0,0.0,-405169.1977943769,0.0,-4501.879975493078,2479338.7561463322,43093.55,60.94689747964199,-1947909.9892901096,-5.152690770062615e-13,-12762897.213033702,-6.426125764846802e-08,-3265359.7072137753,-2.1886080503463745e-08,0.0,0.0,0.0,0.0,0.0,0.0,0.0,-0.021396076485551946,-0.17001722820618737,-0.00016118906052528512,-0.001157343736135539,-2.0443844155841028e-19,-1.6293224675397942e-18,-0.004185488475635748,-0.035091428595587955,2.3938250065045603e-18,1.9076608364691972e-17,-7.640112108222395e-21,-5.976937394403909e-20,0.6283185307179586,0.25000000000000006,1.8060575819088087,2.347644839330892,0.0,0.0,0.0,0.0,0.0,0.0,0.0,0.0,0.0,0.0,0.18849555921538755,-0.030722858210242513,0.0,-0.00022257883632997925,-2.9439635575507487e-19,-0.0061425448560163964,3.4470494039569767e-18,0.048223112980288516,0.0,-0.017657686261529824,0.0,-1.0873217653295702e-20,0.0,0.0,0.0,0.0,0.0,0.0,0.0,0.0,0.0,0.0,0.0,0.0,0.0,10.799999999999997,-0.030722858210242513,-0.012752827930640928,-1.6867668688797713e-17,-0.0061425448560163964,3.4470494039569767e-18,0.048223112980288516,0.0,-0.017657686261529824,0.0,-6.2298948126098485e-19,0.0,0.0,0.3000000000000001
-4485.655555140741,0.0,0.0,0.0,-403708.99996266654,0.0,-4485.655555140741,2479338.7561463322,43093.55,60.94689747964199,-2198184.7587501486,-6.157430814696589e-13,-12646520.220697645,-5.494803190231323e-08,5239801.434517489,-2.6542693376541138e-08,0.0,0.0,0.0,0.0,0.0,0.0,0.0,-0.030722858210242513,-0.20297756994869773,-0.00022257883632997925,-0.0012925653112653421,-2.9439635575507487e-19,-1.9754160573141592e-18,-0.0061425448560163964,-0.04324417140775452,3.4470494039569767e-18,2.312747483504678e-17,-1.0873217653295702e-20,-6.877822071744701e-20,0.6283185307179586,0.3000000000000001,1.7955560708032563,2.739018507581711,0.0,0.0,0.0,0.0,0.0,0.0,0.0,0.0,0.0,0.0,0.2073451151369263,-0.037105823727655286,0.0,-0.0002623556437749303,-3.56270757224279e-19,-0.007515179482387603,4.1714381032877854e-18,0.05743024921249615,0.0,-0.02142420264023723,0.0,-1.3020067278085956e-20,0.0,0.0,0.0,0.0,0.0,0.0,0.0,0.0,0.0,0.0,0.0,0.0,0.0,11.879999999999999,-0.037105823727655286,-0.015031871119741176,-2.0412810752881173e-17,-0.007515179482387603,4.1714381032877854e-18,0.05743024921249615,0.0,-0.02142420264023723,0.0,-7.459949040107108e-19,0.0,0.0,0.3300000000000001
-4476.009890873068,0.0,0.0,0.0,-402840.8901785761,0.0,-4476.009890873068,2479338.7561463322,43093.55,60.94689747964199,-2445413.1054963483,-6.943539946673137e-13,-12515440.437411595,-8.521601557731628e-08,13724516.889619557,-2.60770320892334e-08,0.0,0.0,0.0,0.0,0.0,0.0,0.0,-0.04168569194159397,-0.2354494493310464,-0.0002898680103860409,-0.0013931780158552675,-4.0056704400567666e-19,-2.273696642100029e-18,-0.008514910131155908,-0.05169843555437859,4.690015189892539e-18,2.6617813382199003e-17,-1.454430415834486e-20,-7.845323703278142e-20,0.6283185307179586,0.35000000000000014,1.7831712697178919,2.9479391220979947,0.0,0.0,0.0,0.0,0.0,0.0,0.0,0.0,0.0,0.0,0.22619467105846505,-0.04407235776606953,0.0,-0.0003038806149169892,-4.237388520896825e-19,-0.009040511157535961,4.9612825274189184e-18,0.06712081245057284,0.0,-0.025452008192181123,0.0,-1.5338592150822086e-20,0.0,0.0,0.0,0.0,0.0,0.0,0.0,0.0,0.0,0.0,0.0,0.0,0.0,12.959999999999997,-0.04407235776606953,-0.01741107671058369,-2.427844784045705e-17,-0.009040511157535961,4.9612825274189184e-18,0.06712081245057284,0.0,-0.025452008192181123,0.0,-8.788365939145974e-19,0.0,0.0,0.36000000000000015
-4476.009890873068,0.0,0.0,0.0,-402840.8901785761,0.0,-4476.009890873068,2479338.7561463322,43093.55,60.94689747964199,-2445413.1054963483,-6.943539946673137e-13,-12515440.437411595,-8.521601557731628e-08,13724516.889619557,-2.60770320892334e-08,0.0,0.0,0.0,0.0,0.0,0.0,0.0,-0.04168569194159397,-0.2354494493310464,-0.0002898680103860409,-0.0013931780158552675,-4.0056704400567666e-19,-2.273696642100029e-18,-0.008514910131155908,-0.05169843555437859,4.690015189892539e-18,2.6617813382199003e-17,-1.454430415834486e-20,-7.845323703278142e-20,0.6283185307179586,0.35000000000000014,1.7831712697178919,2.9479391220979947,0.0,0.0,0.0,0.0,0.0,0.0,0.0,0.0,0.0,0.0,0.2450442269800038,-0.05161661365362198,0.0,-0.0003467774516323262,-4.978594099221232e-19,-0.010721638227410374,5.828974329777769e-18,0.07695568273025234,0.0,-0.02940629739726773,0.0,-1.781101060302991e-20,0.0,0.0,0.0,0.0,0.0,0.0,0.0,0.0,0.0,0.0,0.0,0.0,0.0,14.039999999999997,-0.05161661365362198,-0.019868884408834334,-2.8525242979411244e-17,-0.010721638227410374,5.828974329777769e-18,0.07695568273025234,0.0,-0.02940629739726773,0.0,-1.020495736416373e-18,0.0,0.0,0.3900000000000002
-4504.740447679678,0.0,0.0,0.0,-405426.64029117103,0.0,-4504.740447679678,2479338.7561463322,43093.55,60.94689747964199,-2689276.519918199,-7.897839822396014e-13,-12369874.507547451,-9.359791874885559e-08,22176755.21076371,-3.3527612686157227e-08,0.0,0.0,0.0,0.0,0.0,0.0,0.0,-0.05425868351113904,-0.2673741844141493,-0.0003613167836694128,-0.001459029673517274,-5.240153328925319e-19,-2.6342492322392413e-18,-0.011317177379889744,-0.06044087616333655,6.135160455866445e-18,3.083672128609399e-17,-1.8650542965527545e-20,-8.587435858938179e-20,0.6283185307179586,0.4000000000000002,1.768916168596145,2.2183530797757016,0.0,0.0,0.0,0.0,0.0,0.0,0.0,0.0,0.0,0.0,0.2638937829015426,-0.05973236894463913,0.0,-0.0003906740415873776,-5.7817601222242405e-19,-0.012561712944388207,6.769160757516488e-18,0.0867068583716741,0.0,-0.033086369678395,0.0,-2.0409052311767056e-20,0.0,0.0,0.0,0.0,0.0,0.0,0.0,0.0,0.0,0.0,0.0,0.0,0.0,15.119999999999997,-0.05973236894463913,-0.022383973748275145,-3.31270453160492e-17,-0.012561712944388207,6.769160757516488e-18,0.0867068583716741,0.0,-0.033086369678395,0.0,-1.1693525613259684e-18,0.0,0.0,0.4200000000000002
-4504.740447679678,0.0,0.0,0.0,-405426.64029117103,0.0,-4504.740447679678,2479338.7561463322,43093.55,60.94689747964199,-2689276.519918199,-7.897839822396014e-13,-12369874.507547451,-9.359791874885559e-08,22176755.21076371,-3.3527612686157227e-08,0.0,0.0,0.0,0.0,0.0,0.0,0.0,-0.05425868351113904,-0.2673741844141493,-0.0003613167836694128,-0.001459029673517274,-5.240153328925319e-19,-2.6342492322392413e-18,-0.011317177379889744,-0.06044087616333655,6.135160455866445e-18,3.083672128609399e-17,-1.8650542965527545e-20,-8.587435858938179e-20,0.6283185307179586,0.4000000000000002,1.768916168596145,2.2183530797757016,0.0,0.0,0.0,0.0,0.0,0.0,0.0,0.0,0.0,0.0,0.28274333882308134,-0.06841302957182317,0.0,-0.00043520361477367647,-6.646474051654269e-19,-0.014563972677021562,7.781350628747392e-18,0.09629410979883828,0.0,-0.03647031052328082,0.0,-2.3193889536381346e-20,0.0,0.0,0.0,0.0,0.0,0.0,0.0,0.0,0.0,0.0,0.0,0.0,0.0,16.199999999999996,-0.06841302957182317,-0.024935330355368983,-3.808149118030059e-17,-0.014563972677021562,7.781350628747392e-18,0.09629410979883828,0.0,-0.03647031052328082,0.0,-1.3289119809272928e-18,0.0,0.0,0.45000000000000023
-4529.54650701012,0.0,0.0,0.0,-407659.18563091086,0.0,-4529.54650701012,2479338.7561463322,43093.55,60.94689747964199,-2929459.4542813455,-8.716458943720689e-13,-12210065.986782383,-7.12461769580841e-08,30584721.1485934,-2.60770320892334e-08,0.0,0.0,0.0,0.0,0.0,0.0,0.0,-0.06841302957182317,-0.2986941078568648,-0.00043520361477367647,-0.0014908340985892127,-6.646474051654269e-19,-2.9844878880201363e-18,-0.014563972677021562,-0.06948158643244381,7.781350628747392e-18,3.493410133104607e-17,-2.3193889536381346e-20,-9.639739290362255e-20,0.6283185307179586,0.45000000000000023,1.7528057190675093,1.4064481948034093,0.0,0.0,0.0,0.0,0.0,0.0,0.0,0.0,0.0,0.0,0.3015928947446201,-0.0776516342318153,0.0,-0.0004800036252408579,-7.570915087367167e-19,-0.016731701548987624,8.8634032249565e-18,0.10575574767381268,0.0,-0.03968006286739828,0.0,-2.6153494589752184e-20,0.0,0.0,0.0,0.0,0.0,0.0,0.0,0.0,0.0,0.0,0.0,0.0,0.0,17.279999999999998,-0.0776516342318153,-0.02750218187728039,-4.3378148155805754e-17,-0.016731701548987624,8.8634032249565e-18,0.10575574767381268,0.0,-0.03968006286739828,0.0,-1.4984848595110324e-18,0.0,0.0,0.48000000000000026
-4507.9112379936805,0.0,0.0,0.0,-405712.0114194311,0.0,-4507.9112379936805,2479338.7561463322,43093.55,60.94689747964199,-3165655.3702822407,-9.533873081786228e-13,-12036282.310272487,-8.055940270423889e-08,38936802.65028412,-1.30385160446167e-08,0.0,0.0,0.0,0.0,0.0,0.0,0.0,-0.0841170709341332,-0.329352669674194,-0.0005098422329339727,-0.0014891400715972539,-8.22588977335149e-19,-3.3498937645158882e-18,-0.0182703877051349,-0.0788246725551896,9.630019482216699e-18,3.920829652043009e-17,-2.8213456051571645e-20,-1.04126773052889e-19,0.6283185307179586,0.5000000000000002,1.734856818765347,2.1106321020821452,0.0,0.0,0.0,0.0,0.0,0.0,0.0,0.0,0.0,0.0,0.32044245066615884,-0.08744085899146083,0.0,-0.00052471298010133,-8.56485987606038e-19,-0.019068143984088383,1.002675868557749e-17,0.11517638735982341,0.0,-0.042894291510707484,0.0,-2.9261857564161116e-20,0.0,0.0,0.0,0.0,0.0,0.0,0.0,0.0,0.0,0.0,0.0,0.0,0.0,18.359999999999996,-0.08744085899146083,-0.03006383921553816,-4.907303230192011e-17,-0.019068143984088383,1.002675868557749e-17,0.11517638735982341,0.0,-0.042894291510707484,0.0,-1.6765809391393953e-18,0.0,0.0,0.5100000000000002
-4507.9112379936805,0.0,0.0,0.0,-405712.0114194311,0.0,-4507.9112379936805,2479338.7561463322,43093.55,60.94689747964199,-3165655.3702822407,-9.533873081786228e-13,-12036282.310272487,-8.055940270423889e-08,38936802.65028412,-1.30385160446167e-08,0.0,0.0,0.0,0.0,0.0,0.0,0.0,-0.0841170709341332,-0.329352669674194,-0.0005098422329339727,-0.0014891400715972539,-8.22588977335149e-19,-3.3498937645158882e-18,-0.0182703877051349,-0.0788246725551896,9.630019482216699e-18,3.920829652043009e-17,-2.8213456051571645e-20,-1.04126773052889e-19,0.6283185307179586,0.5000000000000002,1.734856818765347,2.1106321020821452,0.0,0.0,0.0,0.0,0.0,0.0,0.0,0.0,0.0,0.0,0.3392920065876976,-0.09777302210880708,0.0,-0.0005689698121192182,-9.625511207341768e-19,-0.02157642581827737,1.1268131646411842e-17,0.12460845905548368,0.0,-0.04625316701199798,0.0,-3.2483921360220126e-20,0.0,0.0,0.0,0.0,0.0,0.0,0.0,0.0,0.0,0.0,0.0,0.0,0.0,19.439999999999998,-0.09777302210880708,-0.0325995689047826,-5.515011678365568e-17,-0.02157642581827737,1.1268131646411842e-17,0.12460845905548368,0.0,-0.04625316701199798,0.0,-1.8611915959754775e-18,0.0,0.0,0.5400000000000003
-4503.179702317005,0.0,0.0,0.0,-405286.1732085304,0.0,-4503.179702317005,2479338.7561463322,43093.55,60.94689747964199,-3397569.978844496,-1.0222907669471424e-12,-11848812.928295877,-7.35744833946228e-08,47221532.29482327,-2.7008354663848877e-08,0.0,0.0,0.0,0.0,0.0,0.0,0.0,-0.10133635083042276,-0.35929453212936996,-0.0005835586666895443,-0.0014538987093988295,-9.992257086338784e-19,-3.697794988525788e-18,-0.022451222162860208,-0.08845430583943996,1.1697351352638218e-17,4.3276603807089524e-17,-3.358935201275851e-20,-1.1070190598885546e-19,0.6283185307179586,0.5500000000000003,1.7150882936036125,2.232859636160197,0.0,0.0,0.0,0.0,0.0,0.0,0.0,0.0,0.0,0.0,0.35814156250923634,-0.1086400890680655,0.0,-0.0006124100847932534,-1.0746626619851533e-18,-0.02425950230092893,1.258020180823241e-17,0.13402002683799372,0.0,-0.049794621509881884,0.0,-3.583581928892255e-20,0.0,0.0,0.0,0.0,0.0,0.0,0.0,0.0,0.0,0.0,0.0,0.0,0.0,20.519999999999996,-0.1086400890680655,-0.035088513189902304,-6.157363493204346e-17,-0.02425950230092893,1.258020180823241e-17,0.13402002683799372,0.0,-0.049794621509881884,0.0,-2.053241200648769e-18,0.0,0.0,0.5700000000000003
-4503.179702317005,0.0,0.0,0.0,-405286.1732085304,0.0,-4503.179702317005,2479338.7561463322,43093.55,60.94689747964199,-3397569.978844496,-1.0222907669471424e-12,-11848812.928295877,-7.35744833946228e-08,47221532.29482327,-2.7008354663848877e-08,0.0,0.0,0.0,0.0,0.0,0.0,0.0,-0.10133635083042276,-0.35929453212936996,-0.0005835586666895443,-0.0014538987093988295,-9.992257086338784e-19,-3.697794988525788e-18,-0.022451222162860208,-0.08845430583943996,1.1697351352638218e-17,4.3276603807089524e-17,-3.358935201275851e-20,-1.1070190598885546e-19,0.6283185307179586,0.5500000000000003,1.7150882936036125,2.232859636160197,0.0,0.0,0.0,0.0,0.0,0.0,0.0,0.0,0.0,0.0,0.3769911184307751,-0.12003367783170338,0.0,-0.0006546682315637468,-1.1925901428922044e-18,-0.027120161814596047,1.3960260206619557e-17,0.14328594250226187,0.0,-0.05344272808330847,0.0,-3.933576511975659e-20,0.0,0.0,0.0,0.0,0.0,0.0,0.0,0.0,0.0,0.0,0.0,0.0,0.0,21.599999999999994,-0.12003367783170338,-0.03750972664989596,-6.833038187662709e-17,-0.027120161814596047,1.3960260206619557e-17,0.14328594250226187,0.0,-0.05344272808330847,0.0,-2.253773325279968e-18,0.0,0.0,0.6000000000000003
-4510.942195597573,0.0,0.0,0.0,-405984.79760378174,0.0,-4510.942195597573,2479338.7561463322,43093.55,60.94689747964199,-3624920.0127400598,-1.07554364627844e-12,-11647969.72861655,-7.916241884231567e-08,55427612.89511611,-2.7939677238464355e-08,0.0,0.0,0.0,0.0,0.0,0.0,0.0,-0.12003367783170338,-0.3884656619530458,-0.0006546682315637468,-0.0013848406949473126,-1.1925901428922044e-18,-4.029710890588364e-18,-0.027120161814596047,-0.09834490068964805,1.3960260206619557e-17,4.7156779944335324e-17,-3.933576511975659e-20,-1.1834675604987626e-19,0.6283185307179586,0.6000000000000003,1.6935208780310693,1.9733485653532445,0.0,0.0,0.0,0.0,0.0,0.0,0.0,0.0,0.0,0.0,0.39584067435231385,-0.1319450643151091,0.0,-0.0006953791416959983,-1.316451452850773e-18,-0.030161071111261855,1.5409676908526157e-17,0.1522186719613327,0.0,-0.05704409146414545,0.0,-4.294653506611851e-20,0.0,0.0,0.0,0.0,0.0,0.0,0.0,0.0,0.0,0.0,0.0,0.0,0.0,22.679999999999996,-0.1319450643151091,-0.039842289980610346,-7.542711218221477e-17,-0.030161071111261855,1.5409676908526157e-17,0.1522186719613327,0.0,-0.05704409146414545,0.0,-2.4606552039991847e-18,0.0,0.0,0.6300000000000003
-4500.4397454260525,0.0,0.0,0.0,-405039.5770883447,0.0,-4500.4397454260525,2479338.7561463322,43093.55,60.94689747964199,-3847430.528171501,-1.1262677044592726e-12,-11434088.410473712,-7.12461769580841e-08,63543990.77381439,-2.1420419216156006e-08,0.0,0.0,0.0,0.0,0.0,0.0,0.0,-0.14016919341363018,-0.4168134245161301,-0.0007214811343252343,-0.001282108685859421,-1.4026403300835615e-18,-4.382457498114973e-18,-0.032289771382649865,-0.10847961026478972,1.6418206910879557e-17,5.1279910165015066e-17,-4.5409456554492346e-20,-1.2529678874018181e-19,0.6283185307179586,0.6500000000000004,1.6701771932837224,2.3012058866069243,0.0,0.0,0.0,0.0,0.0,0.0,0.0,0.0,0.0,0.0,0.4146902302738526,-0.1443651880852545,0.0,-0.0007341806691505039,-1.4468923482069424e-18,-0.03338483884202523,1.693600332632686e-17,0.16061989544531857,0.0,-0.060429597773094104,0.0,-4.6661386606238826e-20,0.0,0.0,0.0,0.0,0.0,0.0,0.0,0.0,0.0,0.0,0.0,0.0,0.0,23.759999999999998,-0.1443651880852545,-0.04206545374241451,-8.29008249620309e-17,-0.03338483884202523,1.693600332632686e-17,0.16061989544531857,0.0,-0.060429597773094104,0.0,-2.6735005187657524e-18,0.0,0.0,0.6600000000000004
-4500.4397454260525,0.0,0.0,0.0,-405039.5770883447,0.0,-4500.4397454260525,2479338.7561463322,43093.55,60.94689747964199,-3847430.528171501,-1.1262677044592726e-12,-11434088.410473712,-7.12461769580841e-08,63543990.77381439,-2.1420419216156006e-08,0.0,0.0,0.0,0.0,0.0,0.0,0.0,-0.14016919341363018,-0.4168134245161301,-0.0007214811343252343,-0.001282108685859421,-1.4026403300835615e-18,-4.382457498114973e-18,-0.032289771382649865,-0.10847961026478972,1.6418206910879557e-17,5.1279910165015066e-17,-4.5409456554492346e-20,-1.2529678874018181e-19,0.6283185307179586,0.6500000000000004,1.6701771932837224,2.3012058866069243,0.0,0.0,0.0,0.0,0.0,0.0,0.0,0.0,0.0,0.0,0.43353978619539135,-0.1572846582812603,0.0,-0.0007707160272286965,-1.583347710465006e-18,-0.0367940754163736,1.8532610108397452e-17,0.16832888256528142,0.0,-0.06347253329716165,0.0,-5.046068927077592e-20,0.0,0.0,0.0,0.0,0.0,0.0,0.0,0.0,0.0,0.0,0.0,0.0,0.0,24.839999999999993,-0.1572846582812603,-0.044158775563294145,-9.07191413113467e-17,-0.0367940754163736,1.8532610108397452e-17,0.16832888256528142,0.0,-0.06347253329716165,0.0,-2.8911845265365362e-18,0.0,0.0,0.6900000000000004
-4510.052101325743,0.0,0.0,0.0,-405904.68911931687,0.0,-4510.052101325743,2479338.7561463322,43093.55,60.94689747964199,-4064834.365708973,-1.1683798897517628e-12,-11207528.62466386,-7.35744833946228e-08,71559910.81428947,-1.7695128917694092e-08,0.0,0.0,0.0,0.0,0.0,0.0,0.0,-0.16170044427785785,-0.4442866792946583,-0.0007823301888082901,-0.0011464515305247335,-1.630070079810297e-18,-4.716612889553955e-18,-0.03797215894216434,-0.11885669965515977,1.9079265317069856e-17,5.518426492373486e-17,-5.173281981112253e-20,-1.2761869648751846e-19,0.6283185307179586,0.7000000000000004,1.6450817236582709,2.0420546741786403,0.0,0.0,0.0,0.0,0.0,0.0,0.0,0.0,0.0,0.0,0.4523893421169301,-0.17069375975067033,0.0,-0.000804635167388869,-1.7260764221677584e-18,-0.040391424837655995,2.020251714191176e-17,0.17524878970639418,0.0,-0.06612026795165252,0.0,-5.431995885008167e-20,0.0,0.0,0.0,0.0,0.0,0.0,0.0,0.0,0.0,0.0,0.0,0.0,0.0,25.919999999999995,-0.17069375975067033,-0.04610219913918472,-9.88968941072539e-17,-0.040391424837655995,2.020251714191176e-17,0.17524878970639418,0.0,-0.06612026795165252,0.0,-3.1123043854339843e-18,0.0,0.0,0.7200000000000004
-4510.052101325743,0.0,0.0,0.0,-405904.68911931687,0.0,-4510.052101325743,2479338.7561463322,43093.55,60.94689747964199,-4064834.365708973,-1.1683798897517628e-12,-11207528.62466386,-7.35744833946228e-08,71559910.81428947,-1.7695128917694092e-08,0.0,0.0,0.0,0.0,0.0,0.0,0.0,-0.16170044427785785,-0.4442866792946583,-0.0007823301888082901,-0.0011464515305247335,-1.630070079810297e-18,-4.716612889553955e-18,-0.03797215894216434,-0.11885669965515977,1.9079265317069856e-17,5.518426492373486e-17,-5.173281981112253e-20,-1.2761869648751846e-19,0.6283185307179586,0.7000000000000004,1.6450817236582709,2.0420546741786403,0.0,0.0,0.0,0.0,0.0,0.0,0.0,0.0,0.0,0.0,0.47123889803846886,-0.18458245939078372,0.0,-0.0008355946715708144,-1.8756091690117758e-18,-0.04417955722489252,2.195192689431491e-17,0.1813440528889946,0.0,-0.06839116334491514,0.0,-5.82695441954274e-20,0.0,0.0,0.0,0.0,0.0,0.0,0.0,0.0,0.0,0.0,0.0,0.0,0.0,26.999999999999993,-0.18458245939078372,-0.04787604806462782,-1.0746448940041427e-16,-0.04417955722489252,2.195192689431491e-17,0.1813440528889946,0.0,-0.06839116334491514,0.0,-3.3385989565490142e-18,0.0,0.0,0.7500000000000004
-4506.01563158231,0.0,0.0,0.0,-405541.40684240795,0.0,-4506.01563158231,2479338.7561463322,43093.55,60.94689747964199,-4276874.273629318,-1.2068980498949823e-12,-10968672.336039046,-6.798654794692993e-08,79464919.70734793,-7.450580596923828e-09,0.0,0.0,0.0,0.0,0.0,0.0,0.0,-0.18458245939078372,-0.4708358723040577,-0.0008355946715708144,-0.0009788916173547769,-1.8756091690117758e-18,-5.083807492481066e-18,-0.04417955722489252,-0.129480512531536,2.195192689431491e-17,5.947440403277347e-17,-5.82695441954274e-20,-1.3172693961988472e-19,0.6283185307179586,0.7500000000000004,1.6182607908314657,2.1578780762826657,0.0,0.0,0.0,0.0,0.0,0.0,0.0,0.0,0.0,0.0,0.4900884539600076,-0.19894041268476356,0.0,-0.0008632571054028438,-2.03145283600574e-18,-0.048161141943900115,2.3775051944448724e-17,0.186615142031651,0.0,-0.07034401911448855,0.0,-6.226055343910994e-20,0.0,0.0,0.0,0.0,0.0,0.0,0.0,0.0,0.0,0.0,0.0,0.0,0.0,28.079999999999995,-0.19894041268476356,-0.049460988774263,-1.1639367378301066e-16,-0.048161141943900115,2.3775051944448724e-17,0.186615142031651,0.0,-0.07034401911448855,0.0,-3.567266942209723e-18,0.0,0.0,0.7800000000000005
-4500.937992325248,0.0,0.0,0.0,-405084.41930927255,0.0,-4500.937992325248,2479338.7561463322,43093.55,60.94689747964199,-4483305.367786625,-1.2397469073541537e-12,-10717921.72282782,-7.683411240577698e-08,87248841.1384933,9.313225746154785e-10,0.0,0.0,0.0,0.0,0.0,0.0,0.0,-0.20876783148573994,-0.49641312198197246,-0.0008797026825312426,-0.0007803218604929964,-2.139289960593973e-18,-5.468800992250966e-18,-0.050924307721402204,-0.14034984456477828,2.5036512589679318e-17,6.397178571462354e-17,-6.496167865921372e-20,-1.3541709453336503e-19,0.6283185307179586,0.8000000000000005,1.5897425262523117,2.3013254544484147,0.0,0.0,0.0,0.0,0.0,0.0,0.0,0.0,0.0,0.0,0.5089380098815465,-0.21375697042592157,0.0,-0.0008872900479322544,-2.1942866957604243e-18,-0.05233881141116516,2.567983397040552e-17,0.19106466343183748,0.0,-0.07203692812146957,0.0,-6.631834849406825e-20,0.0,0.0,0.0,0.0,0.0,0.0,0.0,0.0,0.0,0.0,0.0,0.0,0.0,29.16,-0.21375697042592157,-0.0508379749504787,-1.2572336670877923e-16,-0.05233881141116516,2.567983397040552e-17,0.19106466343183748,0.0,-0.07203692812146957,0.0,-3.7997614729878895e-18,0.0,0.0,0.8100000000000005
-4500.937992325248,0.0,0.0,0.0,-405084.41930927255,0.0,-4500.937992325248,2479338.7561463322,43093.55,60.94689747964199,-4483305.367786625,-1.2397469073541537e-12,-10717921.72282782,-7.683411240577698e-08,87248841.1384933,9.313225746154785e-10,0.0,0.0,0.0,0.0,0.0,0.0,0.0,-0.20876783148573994,-0.49641312198197246,-0.0008797026825312426,-0.0007803218604929964,-2.139289960593973e-18,-5.468800992250966e-18,-0.050924307721402204,-0.14034984456477828,2.5036512589679318e-17,6.397178571462354e-17,-6.496167865921372e-20,-1.3541709453336503e-19,0.6283185307179586,0.8000000000000005,1.5897425262523117,2.3013254544484147,0.0,0.0,0.0,0.0,0.0,0.0,0.0,0.0,0.0,0.0,0.5277875658030854,-0.22902118562439416,0.0,-0.0009073655170635887,-2.363300205913378e-18,-0.05671513517796762,2.7656767302867187e-17,0.19467011067194945,0.0,-0.07349399411736027,0.0,-7.039373005950097e-20,0.0,0.0,0.0,0.0,0.0,0.0,0.0,0.0,0.0,0.0,0.0,0.0,0.0,30.24000000000001,-0.22902118562439416,-0.05198821460344931,-1.3540712752123497e-16,-0.05671513517796762,2.7656767302867187e-17,0.19467011067194945,0.0,-0.07349399411736027,0.0,-4.033263636592603e-18,0.0,0.0,0.8400000000000005
-4494.027759995887,0.0,0.0,0.0,-404462.49839962967,0.0,-4494.027759995887,2479338.7561463322,43093.55,60.94689747964199,-4683895.827127236,-1.248171959889837e-12,-10455698.048587203,-5.774199962615967e-08,94901772.30147867,0.0,0.0,0.0,0.0,0.0,0.0,0.0,0.0,-0.23420680271148095,-0.5209722995922803,-0.0009131218612495116,-0.0005514535567273679,-2.420718599361849e-18,-5.774563490282294e-18,-0.05821848925342697,-0.15145599658596479,2.832834861801035e-17,6.754005534846131e-17,-7.173636121533516e-20,-1.3469841195246801e-19,0.6283185307179586,0.8500000000000005,1.5595568416360701,2.4900544473316915,0.0,0.0,0.0,0.0,0.0,0.0,0.0,0.0,0.0,0.0,0.5466371217246243,-0.24472182059442174,0.0,-0.0009231601229201228,-2.5375256300026232e-18,-0.06129261455289657,2.969450524001751e-17,0.19737324951411234,0.0,-0.07469204355428283,0.0,-7.443622947695252e-20,0.0,0.0,0.0,0.0,0.0,0.0,0.0,0.0,0.0,0.0,0.0,0.0,0.0,31.320000000000018,-0.24472182059442174,-0.052893178858101325,-1.453895090054256e-16,-0.06129261455289657,2.969450524001751e-17,0.19737324951411234,0.0,-0.07469204355428283,0.0,-4.264881791896671e-18,0.0,0.0,0.8700000000000006
-4494.027759995887,0.0,0.0,0.0,-404462.49839962967,0.0,-4494.027759995887,2479338.7561463322,43093.55,60.94689747964199,-4683895.827127236,-1.248171959889837e-12,-10455698.048587203,-5.774199962615967e-08,94901772.30147867,0.0,0.0,0.0,0.0,0.0,0.0,0.0,0.0,-0.23420680271148095,-0.5209722995922803,-0.0009131218612495116,-0.0005514535567273679,-2.420718599361849e-18,-5.774563490282294e-18,-0.05821848925342697,-0.15145599658596479,2.832834861801035e-17,6.754005534846131e-17,-7.173636121533516e-20,-1.3469841195246801e-19,0.6283185307179586,0.8500000000000005,1.5595568416360701,2.4900544473316915,0.0,0.0,0.0,0.0,0.0,0.0,0.0,0.0,0.0,0.0,0.5654866776461632,-0.260847354220304,0.0,-0.0009343559157442256,-2.7185703482526625e-18,-0.06607369775650097,3.1811857202769165e-17,0.1990877329793766,0.0,-0.07556936716189509,0.0,-7.853278739553447e-20,0.0,0.0,0.0,0.0,0.0,0.0,0.0,0.0,0.0,0.0,0.0,0.0,0.0,32.40000000000003,-0.260847354220304,-0.05353465053522527,-1.5576260726428798e-16,-0.06607369775650097,3.1811857202769165e-17,0.1990877329793766,0.0,-0.07556936716189509,0.0,-4.499597271162314e-18,0.0,0.0,0.9000000000000006
-4508.488587751078,0.0,0.0,0.0,-405763.972897597,0.0,-4508.488587751078,2479338.7561463322,43093.55,60.94689747964199,-4878425.966458605,-1.259595436869401e-12,-10182441.471827133,-7.12461769580841e-08,102414113.79380377,9.313225746154785e-09,0.0,0.0,0.0,0.0,0.0,0.0,0.0,-0.260847354220304,-0.5444691068211854,-0.0009343559157442256,-0.00029306733265496216,-2.7185703482526625e-18,-6.150192557506959e-18,-0.06607369775650097,-0.16278978370048008,3.1811857202769165e-17,7.192520509946017e-17,-7.853278739553447e-20,-1.364926129502547e-19,0.6283185307179586,0.9000000000000006,1.5277353975910029,2.1183692420727294,0.0,0.0,0.0,0.0,0.0,0.0,0.0,0.0,0.0,0.0,0.5843362335677021,-0.2773859893981593,0.0,-0.0009406415918719433,-2.9058074528593265e-18,-0.07106080683914351,3.400146694114215e-17,0.19971891176010276,0.0,-0.0760492998733345,0.0,-8.262886190794322e-20,0.0,0.0,0.0,0.0,0.0,0.0,0.0,0.0,0.0,0.0,0.0,0.0,0.0,33.48000000000003,-0.2773859893981593,-0.05389479324872963,-1.6649050312649933e-16,-0.07106080683914351,3.400146694114215e-17,0.19971891176010276,0.0,-0.0760492998733345,0.0,-4.734285053294442e-18,0.0,0.0,0.9300000000000006
-4502.6613935865425,0.0,0.0,0.0,-405239.5254227888,0.0,-4502.6613935865425,2479338.7561463322,43093.55,60.94689747964199,-4783780.674695955,-2.4376153671268703e-12,-10248837.424294254,-7.82310962677002e-08,119973914.69197474,-2.2351741790771484e-08,0.0,0.0,0.0,0.0,0.0,0.0,0.0,-0.2886407166464648,-0.5673200841052349,-0.0009414895108183615,3.3070462203635574e-05,-3.033768876644905e-18,-6.468508304131504e-18,-0.07448994937952605,-0.17339750787915575,3.549776680814408e-17,7.563599456471543e-17,-8.539295884135294e-20,-1.3868513447988498e-19,0.6283185307179586,0.9500000000000006,1.4943115704107766,2.29562610165774,0.0,0.0,0.0,0.0,0.0,0.0,0.0,0.0,0.0,0.0,0.6031857894892411,-0.2943368216461952,0.0,-0.0009407579268516949,-3.0987544700021222e-18,-0.07623323897833567,3.625762544280491e-17,0.1987929272460062,0.0,-0.0757667288505866,0.0,-8.67847039792159e-20,0.0,0.0,0.0,0.0,0.0,0.0,0.0,0.0,0.0,0.0,0.0,0.0,0.0,34.560000000000045,-0.2943368216461952,-0.053901458752079134,-1.7754555287841989e-16,-0.07623323897833567,3.625762544280491e-17,0.1987929272460062,0.0,-0.0757667288505866,0.0,-4.9723972643012725e-18,0.0,0.0,0.9600000000000006
-4502.6613935865425,0.0,0.0,0.0,-405239.5254227888,0.0,-4502.6613935865425,2479338.7561463322,43093.55,60.94689747964199,-4783780.674695955,-2.4376153671268703e-12,-10248837.424294254,-7.82310962677002e-08,119973914.69197474,-2.2351741790771484e-08,0.0,0.0,0.0,0.0,0.0,0.0,0.0,-0.2886407166464648,-0.5673200841052349,-0.0009414895108183615,3.3070462203635574e-05,-3.033768876644905e-18,-6.468508304131504e-18,-0.07448994937952605,-0.17339750787915575,3.549776680814408e-17,7.563599456471543e-17,-8.539295884135294e-20,-1.3868513447988498e-19,0.6283185307179586,0.9500000000000006,1.4943115704107766,2.29562610165774,0.0,0.0,0.0,0.0,0.0,0.0,0.0,0.0,0.0,0.0,0.62203534541078,-0.31169287985656385,0.0,-0.0009339691153866114,-3.2984689762857526e-18,-0.08158311423194739,3.859267993942895e-17,0.19620742599745214,0.0,-0.07470385834274162,0.0,-9.097809349119865e-20,0.0,0.0,0.0,0.0,0.0,0.0,0.0,0.0,0.0,0.0,0.0,0.0,0.0,35.64000000000006,-0.31169287985656385,-0.05351248850721983,-1.8898835119601084e-16,-0.08158311423194739,3.859267993942895e-17,0.19620742599745214,0.0,-0.07470385834274162,0.0,-5.212660785192309e-18,0.0,0.0,0.9900000000000007
-4459.602131239376,0.0,0.0,0.0,-401364.1918115438,0.0,-4459.602131239376,2479338.7561463322,43093.55,60.94689747964199,-5838835.452886415,-3.730924803502117e-12,-10244167.131715693,-8.405186235904694e-08,123040714.87813553,-1.7695128917694092e-08,0.0,0.0,0.0,0.0,0.0,0.0,0.0,-0.3175661786416105,-0.58955347349121,-0.0009301206260650492,0.00041859005991868643,-3.366277422681855e-18,-6.8114403777929666e-18,-0.08340630742863274,-0.18361127690187468,3.9385434506584224e-17,7.963136178144816e-17,-9.237026530369984e-20,-1.3925218071694486e-19,0.6283185307179586,1.0000000000000007,1.4593204170673446,3.1835822261828306,0.0,0.0,0.0,0.0,0.0,0.0,0.0,0.0,0.0,0.0,0.6408849013323189,-0.3294462643173111,0.0,-0.0009205006289290199,-3.5038777357724575e-18,-0.08713579766289571,4.099402059268241e-17,0.19240978046381918,0.0,-0.07330632969654682,0.0,-9.516638258442869e-20,0.0,0.0,0.0,0.0,0.0,0.0,0.0,0.0,0.0,0.0,0.0,0.0,0.0,36.72000000000006,-0.3294462643173111,-0.052740801076770726,-2.0075740618961687e-16,-0.08713579766289571,4.099402059268241e-17,0.19240978046381918,0.0,-0.07330632969654682,0.0,-5.452632073615064e-18,0.0,0.0,1.0200000000000007
-4459.602131239376,0.0,0.0,0.0,-401364.1918115438,0.0,-4459.602131239376,2479338.7561463322,43093.55,60.94689747964199,-5838835.452886415,-3.730924803502117e-12,-10244167.131715693,-8.405186235904694e-08,123040714.87813553,-1.7695128917694092e-08,0.0,0.0,0.0,0.0,0.0,0.0,0.0,-0.3175661786416105,-0.58955347349121,-0.0009301206260650492,0.00041859005991868643,-3.366277422681855e-18,-6.8114403777929666e-18,-0.08340630742863274,-0.18361127690187468,3.9385434506584224e-17,7.963136178144816e-17,-9.237026530369984e-20,-1.3925218071694486e-19,0.6283185307179586,1.0000000000000007,1.4593204170673446,3.1835822261828306,0.0,0.0,0.0,0.0,0.0,0.0,0.0,0.0,0.0,0.0,0.6597344572538578,-0.3475930629984454,0.0,-0.0009011512552860979,-3.71674617001161e-18,-0.09294165985959055,4.3482255002515894e-17,0.18802107361414774,0.0,-0.07209850813874619,0.0,-9.939078557462471e-20,0.0,0.0,0.0,0.0,0.0,0.0,0.0,0.0,0.0,0.0,0.0,0.0,0.0,37.800000000000075,-0.3475930629984454,-0.05163216363080962,-2.129538690630784e-16,-0.09294165985959055,4.3482255002515894e-17,0.18802107361414774,0.0,-0.07209850813874619,0.0,-5.6946725359157405e-18,0.0,0.0,1.0500000000000007
-4493.260602777216,0.0,0.0,0.0,-404393.4542499494,0.0,-4493.260602777216,2479338.7561463322,43093.55,60.94689747964199,-6032827.823642053,-3.84889386077486e-12,-9917882.246970592,-9.12696123123169e-08,130674600.47938809,2.9802322387695312e-08,0.0,0.0,0.0,0.0,0.0,0.0,0.0,-0.3475930629984454,-0.6112872333705979,-0.0009011512552860979,0.0007476068801251049,-3.71674617001161e-18,-7.22908175685062e-18,-0.09294165985959055,-0.19772199005623553,4.3482255002515894e-17,8.449622357744142e-17,-9.939078557462471e-20,-1.3982791427344266e-19,0.6283185307179586,1.0500000000000007,1.4227986384410334,2.5801501939154257,0.0,0.0,0.0,0.0,0.0,0.0,0.0,0.0,0.0,0.0,0.6785840131753967,-0.36611906856444826,0.0,-0.0008755677639895829,-3.9365719650603245e-18,-0.09900092543347422,4.6051481738702026e-17,0.18277520474952064,0.0,-0.07078542442487405,0.0,-1.0350207806069775e-19,0.0,0.0,0.0,0.0,0.0,0.0,0.0,0.0,0.0,0.0,0.0,0.0,0.0,38.88000000000008,-0.36611906856444826,-0.050166337554309645,-2.2554895934747756e-16,-0.09900092543347422,4.6051481738702026e-17,0.18277520474952064,0.0,-0.07078542442487405,0.0,-5.930232243711574e-18,0.0,0.0,1.0800000000000007
-4499.6424636032,0.0,0.0,0.0,-404967.821724288,0.0,-4499.6424636032,2479338.7561463322,43093.55,60.94689747964199,-6219201.065849265,-3.91118590183645e-12,-9581582.64970394,-9.709037840366364e-08,138122917.87049076,-2.7939677238464355e-09,0.0,0.0,0.0,0.0,0.0,0.0,0.0,-0.3786736152594952,-0.631717574599913,-0.000854916108570873,0.0011062773287491784,-4.086262645395382e-18,-7.556917636222649e-18,-0.10318297464066994,-0.21196841952058373,4.780079365145781e-17,8.83075478825252e-17,-1.0623044577415527e-19,-1.3618636815929728e-19,0.6283185307179586,1.1000000000000008,1.3847845408263946,2.4336671920566313,0.0,0.0,0.0,0.0,0.0,0.0,0.0,0.0,0.0,0.0,0.6974335690969357,-0.38501047814044326,0.0,-0.0008434796662590009,-4.1622859647070685e-18,-0.10531703520801584,4.8689158500163313e-17,0.17639327070304903,0.0,-0.06903317142275613,0.0,-1.0759420171859529e-19,0.0,0.0,0.0,0.0,0.0,0.0,0.0,0.0,0.0,0.0,0.0,0.0,0.0,39.96000000000009,-0.38501047814044326,-0.04832782498174398,-2.3848141890425334e-16,-0.10531703520801584,4.8689158500163313e-17,0.17639327070304903,0.0,-0.06903317142275613,0.0,-6.164693658554739e-18,0.0,0.0,1.1100000000000008
-4499.6424636032,0.0,0.0,0.0,-404967.821724288,0.0,-4499.6424636032,2479338.7561463322,43093.55,60.94689747964199,-6219201.065849265,-3.91118590183645e-12,-9581582.64970394,-9.709037840366364e-08,138122917.87049076,-2.7939677238464355e-09,0.0,0.0,0.0,0.0,0.0,0.0,0.0,-0.3786736152594952,-0.631717574599913,-0.000854916108570873,0.0011062773287491784,-4.086262645395382e-18,-7.556917636222649e-18,-0.10318297464066994,-0.21196841952058373,4.780079365145781e-17,8.83075478825252e-17,-1.0623044577415527e-19,-1.3618636815929728e-19,0.6283185307179586,1.1000000000000008,1.3847845408263946,2.4336671920566313,0.0,0.0,0.0,0.0,0.0,0.0,0.0,0.0,0.0,0.0,0.7162831250184746,-0.4042530528629632,0.0,-0.0008046051894014304,-4.395156162152209e-18,-0.11189249681494129,5.1410113434607966e-17,0.16864374511954008,0.0,-0.06656376742853398,0.0,-1.1167982307261753e-19,0.0,0.0,0.0,0.0,0.0,0.0,0.0,0.0,0.0,0.0,0.0,0.0,0.0,41.0400000000001,-0.4042530528629632,-0.0461004815270262,-2.518238983922381e-16,-0.11189249681494129,5.1410113434607966e-17,0.16864374511954008,0.0,-0.06656376742853398,0.0,-6.398782518828738e-18,0.0,0.0,1.1400000000000008
-4487.456403496586,0.0,0.0,0.0,-403871.0763146929,0.0,-4487.456403496586,2479338.7561463322,43093.55,60.94689747964199,-6397749.890456514,-3.980316988445255e-12,-9235836.518633202,-7.846392691135406e-08,145377078.00115728,9.313225746154785e-09,0.0,0.0,0.0,0.0,0.0,0.0,0.0,-0.4107427865819275,-0.6508259627899072,-0.0007900923413699335,0.001490796499214383,-4.474129794390246e-18,-7.926728101440808e-18,-0.11414240454266998,-0.2264496497654765,5.233278998293468e-17,9.26084719438166e-17,-1.1303765002532288e-19,-1.3439095407219947e-19,0.6283185307179586,1.1500000000000008,1.3453179957541996,2.762570158031918,0.0,0.0,0.0,0.0,0.0,0.0,0.0,0.0,0.0,0.0,0.7351326809400135,-0.4238323224250008,0.0,-0.0007586772055990125,-4.6338784031299394e-18,-0.11872995992261326,5.419905245598895e-17,0.1594397141252082,0.0,-0.06326801756542509,0.0,-1.1568459823878577e-19,0.0,0.0,0.0,0.0,0.0,0.0,0.0,0.0,0.0,0.0,0.0,0.0,0.0,42.12000000000011,-0.4238323224250008,-0.04346900189360244,-2.65501675276167e-16,-0.11872995992261326,5.419905245598895e-17,0.1594397141252082,0.0,-0.06326801756542509,0.0,-6.628239233748981e-18,0.0,0.0,1.1700000000000008
-4487.456403496586,0.0,0.0,0.0,-403871.0763146929,0.0,-4487.456403496586,2479338.7561463322,43093.55,60.94689747964199,-6397749.890456514,-3.980316988445255e-12,-9235836.518633202,-7.846392691135406e-08,145377078.00115728,9.313225746154785e-09,0.0,0.0,0.0,0.0,0.0,0.0,0.0,-0.4107427865819275,-0.6508259627899072,-0.0007900923413699335,0.001490796499214383,-4.474129794390246e-18,-7.926728101440808e-18,-0.11414240454266998,-0.2264496497654765,5.233278998293468e-17,9.26084719438166e-17,-1.1303765002532288e-19,-1.3439095407219947e-19,0.6283185307179586,1.1500000000000008,1.3453179957541996,2.762570158031918,0.0,0.0,0.0,0.0,0.0,0.0,0.0,0.0,0.0,0.0,0.7539822368615524,-0.44373359452249245,0.0,-0.000705442901801329,-4.879436558496084e-18,-0.12583221180363865,5.706747572977575e-17,0.1488510938355773,0.0,-0.05922119681733099,0.0,-1.1963937062525043e-19,0.0,0.0,0.0,0.0,0.0,0.0,0.0,0.0,0.0,0.0,0.0,0.0,0.0,43.20000000000012,-0.44373359452249245,-0.04041890096067793,-2.7957112120366484e-16,-0.12583221180363865,5.706747572977575e-17,0.1488510938355773,0.0,-0.05922119681733099,0.0,-6.854831000428286e-18,0.0,0.0,1.2000000000000008
-4401.34909485439,0.0,0.0,0.0,-396121.418536895,0.0,-4401.34909485439,2479338.7561463322,43093.55,60.94689747964199,-6568307.982182385,-4.04776314598841e-12,-8881227.538005628,-9.813811630010605e-08,152429002.2443719,8.381903171539307e-09,0.0,0.0,0.0,0.0,0.0,0.0,0.0,-0.44373359452249245,-0.6685774111697216,-0.000705442901801329,0.001898954567566164,-4.879436558496084e-18,-8.307276530398749e-18,-0.12583221180363865,-0.24118655352290855,5.706747572977575e-17,9.70331352805925e-17,-1.1963937062525043e-19,-1.307963303517982e-19,0.6283185307179586,1.2000000000000008,1.3044403981717194,3.6855939719186463,0.0,0.0,0.0,0.0,0.0,0.0,0.0,0.0,0.0,0.0,0.7728317927830913,-0.4639419644048605,0.0,-0.0006446612200705493,-5.131688117276156e-18,-0.13320210566987195,6.001369182036963e-17,0.1370540527894727,0.0,-0.05462277352411279,0.0,-1.2352816483160955e-19,0.0,0.0,0.0,0.0,0.0,0.0,0.0,0.0,0.0,0.0,0.0,0.0,0.0,44.28000000000013,-0.4639419644048605,-0.036936367125796836,-2.9402407089735916e-16,-0.13320210566987195,6.001369182036963e-17,0.1370540527894727,0.0,-0.05462277352411279,0.0,-7.07764249584759e-18,0.0,0.0,1.2300000000000009
-4280.7465434786955,0.0,0.0,0.0,-385267.1889130828,0.0,-4280.7465434786955,2479338.7561463322,43093.55,60.94689747964199,-6730726.410567279,-4.068310277054891e-12,-8518348.508175,-9.604264050722122e-08,159270965.5050167,2.7008354663848877e-08,0.0,0.0,0.0,0.0,0.0,0.0,0.0,-0.47757736840515713,-0.6849393843123001,-0.0005998321832203318,0.002329015046667308,-5.302729410078327e-18,-8.623741729904016e-18,-0.1382654588761171,-0.2561866855742491,6.20111479290531e-17,1.0070526674061235e-16,-1.260913386614941e-19,-1.276140878803456e-19,0.6283185307179586,1.2500000000000009,1.2621946230251486,4.564852267932081,0.0,0.0,0.0,0.0,0.0,0.0,0.0,0.0,0.0,0.0,0.7916813487046302,-0.48444232451611213,0.0,-0.0005761000796677515,-5.389439408962063e-18,-0.1408424717597127,6.302369978217714e-17,0.12424869159223913,0.0,-0.04969729455235932,0.0,-1.2735940346258055e-19,0.0,0.0,0.0,0.0,0.0,0.0,0.0,0.0,0.0,0.0,0.0,0.0,0.0,45.360000000000134,-0.48444232451611213,-0.03300810314211265,-3.08792132075007e-16,-0.1408424717597127,6.302369978217714e-17,0.12424869159223913,0.0,-0.04969729455235932,0.0,-7.29715629970971e-18,0.0,0.0,1.260000000000001
-4280.7465434786955,0.0,0.0,0.0,-385267.1889130828,0.0,-4280.7465434786955,2479338.7561463322,43093.55,60.94689747964199,-6730726.410567279,-4.068310277054891e-12,-8518348.508175,-9.604264050722122e-08,159270965.5050167,2.7008354663848877e-08,0.0,0.0,0.0,0.0,0.0,0.0,0.0,-0.47757736840515713,-0.6849393843123001,-0.0005998321832203318,0.002329015046667308,-5.302729410078327e-18,-8.623741729904016e-18,-0.1382654588761171,-0.2561866855742491,6.20111479290531e-17,1.0070526674061235e-16,-1.260913386614941e-19,-1.276140878803456e-19,0.6283185307179586,1.2500000000000009,1.2621946230251486,4.564852267932081,0.0,0.0,0.0,0.0,0.0,0.0,0.0,0.0,0.0,0.0,0.8105309046261692,-0.505219374220088,0.0,-0.0004995341154074234,-5.654099028533495e-18,-0.1487560411184211,6.611397249666422e-17,0.11058321305533653,0.0,-0.04460267478173423,0.0,-1.3107621528279572e-19,0.0,0.0,0.0,0.0,0.0,0.0,0.0,0.0,0.0,0.0,0.0,0.0,0.0,46.44000000000015,-0.505219374220088,-0.028621196535646348,-3.239560112839881e-16,-0.1487560411184211,6.611397249666422e-17,0.11058321305533653,0.0,-0.04460267478173423,0.0,-7.510113930252375e-18,0.0,0.0,1.290000000000001
-4358.217257199438,0.0,0.0,0.0,-392239.55314794945,0.0,-4358.217257199438,2479338.7561463322,43093.55,60.94689747964199,-6884875.418717397,-4.107748345977333e-12,-8147799.489660066,-7.35744833946228e-08,165895570.67499176,4.377216100692749e-08,0.0,0.0,0.0,0.0,0.0,0.0,0.0,-0.5122038728897994,-0.699881837189032,-0.000472195258827862,0.0027798438217604424,-5.7435844095151496e-18,-8.983536033716381e-18,-0.1514550638438382,-0.27143769069955853,6.715873769300634e-17,1.0488268805922239e-16,-1.3232951581136266e-19,-1.2229309731242824e-19,0.6283185307179586,1.300000000000001,1.2186249802897184,4.045398476500093,0.0,0.0,0.0,0.0,0.0,0.0,0.0,0.0,0.0,0.0,0.8293804605477081,-0.5262576296088932,0.0,-0.0004147441311890186,-5.92445523138001e-18,-0.15694541637000115,6.9270295833419e-17,0.09611410119030046,0.0,-0.039381643541541896,0.0,-1.3471860858138576e-19,0.0,0.0,0.0,0.0,0.0,0.0,0.0,0.0,0.0,0.0,0.0,0.0,0.0,47.52000000000016,-0.5262576296088932,-0.0237630882949509,-3.3944628067227614e-16,-0.15694541637000115,6.9270295833419e-17,0.09611410119030046,0.0,-0.039381643541541896,0.0,-7.718807693588319e-18,0.0,0.0,1.320000000000001
-4358.217257199438,0.0,0.0,0.0,-392239.55314794945,0.0,-4358.217257199438,2479338.7561463322,43093.55,60.94689747964199,-6884875.418717397,-4.107748345977333e-12,-8147799.489660066,-7.35744833946228e-08,165895570.67499176,4.377216100692749e-08,0.0,0.0,0.0,0.0,0.0,0.0,0.0,-0.5122038728897994,-0.699881837189032,-0.000472195258827862,0.0027798438217604424,-5.7435844095151496e-18,-8.983536033716381e-18,-0.1514550638438382,-0.27143769069955853,6.715873769300634e-17,1.0488268805922239e-16,-1.3232951581136266e-19,-1.2229309731242824e-19,0.6283185307179586,1.300000000000001,1.2186249802897184,4.045398476500093,0.0,0.0,0.0,0.0,0.0,0.0,0.0,0.0,0.0,0.0,0.848230016469247,-0.5475414333904691,0.0,-0.00032151571749135883,-6.2005136610803615e-18,-0.1654130472575085,7.24927130153732e-17,0.08081129566599646,0.0,-0.033967915192464164,0.0,-1.3822851039818057e-19,0.0,0.0,0.0,0.0,0.0,0.0,0.0,0.0,0.0,0.0,0.0,0.0,0.0,48.600000000000165,-0.5475414333904691,-0.01842149365937536,-3.5526326359311527e-16,-0.1654130472575085,7.24927130153732e-17,0.08081129566599646,0.0,-0.033967915192464164,0.0,-7.919910254195962e-18,0.0,0.0,1.350000000000001
-4263.936693172193,0.0,0.0,0.0,-383754.30238549743,0.0,-4263.936693172193,2479338.7561463322,43093.55,60.94689747964199,-7030641.523445914,-4.125980332460781e-12,-7770187.570203011,-9.19681042432785e-08,172295757.90112692,3.3527612686157227e-08,0.0,0.0,0.0,0.0,0.0,0.0,0.0,-0.5475414333904691,-0.7133772506992718,-0.00032151571749135883,0.0032505820158035903,-6.2005136610803615e-18,-9.317250084978815e-18,-0.1654130472575085,-0.2869182666023981,7.24927130153732e-17,1.087525221978738e-16,-1.3822851039818057e-19,-1.164321772032097e-19,0.6283185307179586,1.350000000000001,1.1737771684946596,4.732699034722938,0.0,0.0,0.0,0.0,0.0,0.0,0.0,0.0,0.0,0.0,0.8670795723907859,-0.5690549648535935,0.0,-0.00021964218490000954,-6.48314156314145e-18,-0.17416129998377666,7.579135586975904e-17,0.06460054117143871,0.0,-0.028236901345681284,0.0,-1.4166251490528435e-19,0.0,0.0,0.0,0.0,0.0,0.0,0.0,0.0,0.0,0.0,0.0,0.0,0.0,49.68000000000018,-0.5690549648535935,-0.012584570197802606,-3.714566495538524e-16,-0.17416129998377666,7.579135586975904e-17,0.06460054117143871,0.0,-0.028236901345681284,0.0,-8.11666421928191e-18,0.0,0.0,1.380000000000001
-4407.464123018948,0.0,0.0,0.0,-396671.77107170527,0.0,-4407.464123018948,2479338.7561463322,43093.55,60.94689747964199,-7167923.291076858,-4.123887282545806e-12,-7386128.315182261,-6.781192496418953e-08,178464898.15669897,4.936009645462036e-08,0.0,0.0,0.0,0.0,0.0,0.0,0.0,-0.5835170632292692,-0.7254006663780929,-0.00014682677282660145,0.003739934654865494,-6.674373727712727e-18,-9.61128972076492e-18,-0.1801505400584966,-0.3026180396403536,7.802299492348619e-17,1.1215551082104182e-16,-1.4386807317393697e-19,-1.0832533476519013e-19,0.6283185307179586,1.400000000000001,1.1276982267917672,3.7454209099878977,0.0,0.0,0.0,0.0,0.0,0.0,0.0,0.0,0.0,0.0,0.8859291283123248,-0.5907822499305705,0.0,-0.00010892821612652415,-6.7707384859625085e-18,-0.18319254492761683,7.914745783100308e-17,0.04741864550623305,0.0,-0.022072248161843406,0.0,-1.4492991339960552e-19,0.0,0.0,0.0,0.0,0.0,0.0,0.0,0.0,0.0,0.0,0.0,0.0,0.0,50.76000000000018,-0.5907822499305705,-0.006241127053938705,-3.879347394324487e-16,-0.18319254492761683,7.914745783100308e-17,0.04741864550623305,0.0,-0.022072248161843406,0.0,-8.303872362993913e-18,0.0,0.0,1.410000000000001
-4407.464123018948,0.0,0.0,0.0,-396671.77107170527,0.0,-4407.464123018948,2479338.7561463322,43093.55,60.94689747964199,-7167923.291076858,-4.123887282545806e-12,-7386128.315182261,-6.781192496418953e-08,178464898.15669897,4.936009645462036e-08,0.0,0.0,0.0,0.0,0.0,0.0,0.0,-0.5835170632292692,-0.7254006663780929,-0.00014682677282660145,0.003739934654865494,-6.674373727712727e-18,-9.61128972076492e-18,-0.1801505400584966,-0.3026180396403536,7.802299492348619e-17,1.1215551082104182e-16,-1.4386807317393697e-19,-1.0832533476519013e-19,0.6283185307179586,1.400000000000001,1.1276982267917672,3.7454209099878977,0.0,0.0,0.0,0.0,0.0,0.0,0.0,0.0,0.0,0.0,0.9047786842338638,-0.6127071713259743,0.0,1.0811137957857325e-05,-7.064234176136942e-18,-0.1925091547486886,8.257188243482961e-17,0.029255704505206245,0.0,-0.015417622368601553,0.0,-1.4804573634081734e-19,0.0,0.0,0.0,0.0,0.0,0.0,0.0,0.0,0.0,0.0,0.0,0.0,0.0,51.840000000000195,-0.6127071713259743,0.0006194325767189084,-4.0475080378472297e-16,-0.1925091547486886,8.257188243482961e-17,0.029255704505206245,0.0,-0.015417622368601553,0.0,-8.48239586723539e-18,0.0,0.0,1.440000000000001
-4406.344335500789,0.0,0.0,0.0,-396570.9901950708,0.0,-4406.344335500789,2479338.7561463322,43093.55,60.94689747964199,-7296630.649314058,-4.143006602044509e-12,-6996243.949832672,-6.734626367688179e-08,184396801.62735668,1.955777406692505e-08,0.0,0.0,0.0,0.0,0.0,0.0,0.0,-0.6200565925746578,-0.7359297215524602,5.2760121811377665e-05,0.004246212138397782,-7.16351834627968e-18,-9.955836097628624e-18,-0.19567852148090215,-0.3185383679677576,8.37301920312001e-17,1.161476836581006e-16,-1.4904591661726006e-19,-9.88905880528713e-20,0.6283185307179586,1.450000000000001,1.0804364856178343,3.783207911721779,0.0,0.0,0.0,0.0,0.0,0.0,0.0,0.0,0.0,0.0,0.9236282401554027,-0.6348134786970066,0.0,0.00013974887736387386,-7.363573023919012e-18,-0.20211353785723163,8.606395305793719e-17,0.010171911322545215,0.0,-0.008297349576508125,0.0,-1.5097702264938257e-19,0.0,0.0,0.0,0.0,0.0,0.0,0.0,0.0,0.0,0.0,0.0,0.0,0.0,52.92000000000021,-0.6348134786970066,0.008007020864641298,-4.219016564069446e-16,-0.20211353785723163,8.606395305793719e-17,0.010171911322545215,0.0,-0.008297349576508125,0.0,-8.65034620126066e-18,0.0,0.0,1.470000000000001
-4406.344335500789,0.0,0.0,0.0,-396570.9901950708,0.0,-4406.344335500789,2479338.7561463322,43093.55,60.94689747964199,-7296630.649314058,-4.143006602044509e-12,-6996243.949832672,-6.734626367688179e-08,184396801.62735668,1.955777406692505e-08,0.0,0.0,0.0,0.0,0.0,0.0,0.0,-0.6200565925746578,-0.7359297215524602,5.2760121811377665e-05,0.004246212138397782,-7.16351834627968e-18,-9.955836097628624e-18,-0.19567852148090215,-0.3185383679677576,8.37301920312001e-17,1.161476836581006e-16,-1.4904591661726006e-19,-9.88905880528713e-20,0.6283185307179586,1.450000000000001,1.0804364856178343,3.783207911721779,0.0,0.0,0.0,0.0,0.0,0.0,0.0,0.0,0.0,0.0,0.9424777960769416,-0.6570847988864532,0.0,0.0002780468463654145,-7.667536309518019e-18,-0.21200811633721023,8.960937239110224e-17,-0.009715333798673037,0.0,-0.0008014205971463074,0.0,-1.5370361381204378e-19,0.0,0.0,0.0,0.0,0.0,0.0,0.0,0.0,0.0,0.0,0.0,0.0,0.0,54.000000000000206,-0.6570847988864532,0.015930910803660662,-4.3931746979869736e-16,-0.21200811633721023,8.960937239110224e-17,-0.009715333798673037,0.0,-0.0008014205971463074,0.0,-8.806568367338814e-18,0.0,0.0,1.500000000000001
-4392.816639835628,0.0,0.0,0.0,-395353.49758520647,0.0,-4392.816639835628,2479338.7561463322,43093.55,60.94689747964199,-7416686.8409655,-4.131898097077937e-12,-6601160.636009886,-8.8853994384408e-08,190085686.12509802,3.818422555923462e-08,0.0,0.0,0.0,0.0,0.0,0.0,0.0,-0.6570847988864532,-0.7449446741145237,0.0002780468463654145,0.004767655230904087,-7.667536309518019e-18,-1.0229537342931343e-17,-0.21200811633721023,-0.33468254688692284,8.960937239110224e-17,1.1930786180160704e-16,-1.5370361381204378e-19,-8.688970969352624e-20,0.6283185307179586,1.500000000000001,1.0320415160027103,3.9121298539286777,0.0,0.0,0.0,0.0,0.0,0.0,0.0,0.0,0.0,0.0,0.9613273519984805,-0.6795046461809628,0.0,0.0004258574271371627,-7.97717509803061e-18,-0.22219527953502574,9.322042321488952e-17,-0.030263555921959392,0.0,0.006952818229827414,0.0,-1.5621036808708817e-19,0.0,0.0,0.0,0.0,0.0,0.0,0.0,0.0,0.0,0.0,0.0,0.0,0.0,55.08000000000022,-0.6795046461809628,0.024399833249259394,-4.570584655540127e-16,-0.22219527953502574,9.322042321488952e-17,-0.030263555921959392,0.0,0.006952818229827414,0.0,-8.950194807575234e-18,0.0,0.0,1.5300000000000011
-4404.443690142795,0.0,0.0,0.0,-396399.9321128514,0.0,-4404.443690142795,2479338.7561463322,43093.55,60.94689747964199,-7528030.424247445,-4.106737509762035e-12,-6201505.595075453,-6.484333425760269e-08,195526121.30292854,4.842877388000488e-08,0.0,0.0,0.0,0.0,0.0,0.0,0.0,-0.6945255384024912,-0.752428419246015,0.0005297539547256449,0.0053028131228771164,-8.186178155256653e-18,-1.0493839616835936e-17,-0.22915041960289737,-0.3510449083763159,9.56574957442421e-17,1.2235556171198477e-16,-1.5777875065868048e-19,-7.666158293928293e-20,0.6283185307179586,1.5500000000000012,0.9825640775761452,3.8596092196949376,0.0,0.0,0.0,0.0,0.0,0.0,0.0,0.0,0.0,0.0,0.9801769079200194,-0.7020564325946034,0.0,0.0005833245299180398,-8.291324394040838e-18,-0.2326773493449167,9.688343654203556e-17,-0.051340242991254746,0.0,0.014862784043000555,0.0,-1.5851975987833865e-19,0.0,0.0,0.0,0.0,0.0,0.0,0.0,0.0,0.0,0.0,0.0,0.0,0.0,56.160000000000224,-0.7020564325946034,0.0334220336507564,-4.750578943524047e-16,-0.2326773493449167,9.688343654203556e-17,-0.051340242991254746,0.0,0.014862784043000555,0.0,-9.082513210456046e-18,0.0,0.0,1.5600000000000012
