AeroFx,AeroFy,AeroFz,AeroMx,AeroMy,AeroMz,AeroThrust,GenPwr,GenTq,HSS_Spd,HydroFx,HydroFy,HydroFz,HydroMx,HydroMy,HydroMz,MoorFx,MoorFy,MoorFz,MoorMx,MoorMy,MoorMz,PitchCmd,PtfmHeave,PtfmHeaveVel,PtfmPitch,PtfmPitchVel,PtfmRoll,PtfmRollVel,PtfmSurge,PtfmSurgeVel,PtfmSway,PtfmSwayVel,PtfmYaw,PtfmYawVel,RotSpeed,Time,WaveElev,WindSpeed,dof_B1E1,dof_B1F1,dof_B1F2,dof_B2E1,dof_B2F1,dof_B2F2,dof_B3E1,dof_B3F1,dof_B3F2,dof_DrTr,dof_GenAz,dof_Heave,dof_NacYaw,dof_Pitch,dof_Roll,dof_Surge,dof_Sway,dof_TwrFA1,dof_TwrFA2,dof_TwrSS1,dof_TwrSS2,dof_Yaw,env_wave_elev,env_wind_speed,gen_torque,qB1E1,qB1F1,qB1F2,qB2E1,qB2F1,qB2F2,qB3E1,qB3F1,qB3F2,qDrTr,qGeAz,qHv,qP,qR,qSg,qSw,qTFA1,qTFA2,qTSS1,qTSS2,qY,qyaw,thrust,time
-4509.126135756859,0.0,0.0,0.0,-405821.35221811745,0.0,-4509.126135756859,2479338.7561463322,43093.55,60.94689747964199,-662255.9385189521,0.0,-13118462.846182412,-6.146728992462158e-08,-45669366.12328332,-4.190951585769653e-08,-6.187454983592033,0.0,-1979296.783997564,0.0,5.345696542412043,0.0,0.0,0.0,0.0,0.0,0.0,0.0,0.0,0.0,0.0,0.0,0.0,0.0,0.0,0.6283185307179586,0.0,1.83,1.8782693490496025,0.0,0.0,0.0,0.0,0.0,0.0,0.0,0.0,0.0,0.0,0.01884955592153876,-0.0003577699070369823,0.0,-2.746425075117309e-06,-3.3869352234899155e-21,-5.542497962527829e-05,3.966295437102229e-20,0.001066404599353734,0.0,-0.0008085010307519017,0.0,-1.0435543819181807e-22,0.0,0.0,0.0,0.0,0.0,0.0,0.0,0.0,0.0,0.0,0.0,0.0,0.0,1.08,-0.0003577699070369823,-0.0001573585655531219,-1.940570937901704e-19,-5.542497962527829e-05,3.966295437102229e-20,0.001066404599353734,0.0,-0.0008085010307519017,0.0,-5.979126177629498e-21,0.0,0.0,0.03
-4510.939359762405,0.0,0.0,0.0,-405984.54237861646,0.0,-4510.939359762405,2479338.7561463322,43093.55,60.94689747964199,-923017.4979037296,-1.2020663169688776e-13,-13075661.477317486,-5.774199962615967e-08,-37250086.39076463,-5.960464477539063e-08,75.6558044796111,0.0,-1979231.7743841168,0.0,-322.346277307719,5.684341886080801e-13,0.0,-0.000993276920551354,-0.039703508449233545,-7.521966479143096e-06,-0.00029549875853044695,-9.262328334392018e-21,-3.626115034252129e-19,-0.00015518027435657133,-0.006267496374826792,1.0846630747640657e-19,4.246309252438286e-18,-2.8808677960857553e-22,-1.1597145151003005e-20,0.6283185307179586,0.05,1.8290402915511532,2.1627840547240527,0.0,0.0,0.0,0.0,0.0,0.0,0.0,0.0,0.0,0.0,0.03769911184307752,-0.0014299135099217198,0.0,-1.0753994940381114e-05,-1.3089502152558898e-20,-0.00022432330364198082,1.532836571149434e-19,0.003850424140764954,0.0,-0.0027623164785554157,0.0,-4.246685483917381e-22,0.0,0.0,0.0,0.0,0.0,0.0,0.0,0.0,0.0,0.0,0.0,0.0,0.0,2.16,-0.0014299135099217198,-0.0006161585229888792,-7.499732292690312e-19,-0.00022432330364198082,1.532836571149434e-19,0.003850424140764954,0.0,-0.0027623164785554157,0.0,-2.433171551479376e-20,0.0,0.0,0.060000000000000005
-4510.939359762405,0.0,0.0,0.0,-405984.54237861646,0.0,-4510.939359762405,2479338.7561463322,43093.55,60.94689747964199,-923017.4979037296,-1.2020663169688776e-13,-13075661.477317486,-5.774199962615967e-08,-37250086.39076463,-5.960464477539063e-08,75.6558044796111,0.0,-1979231.7743841168,0.0,-322.346277307719,5.684341886080801e-13,0.0,-0.000993276920551354,-0.039703508449233545,-7.521966479143096e-06,-0.00029549875853044695,-9.262328334392018e-21,-3.626115034252129e-19,-0.00015518027435657133,-0.006267496374826792,1.0846630747640657e-19,4.246309252438286e-18,-2.8808677960857553e-22,-1.1597145151003005e-20,0.6283185307179586,0.05,1.8290402915511532,2.1627840547240527,0.0,0.0,0.0,0.0,0.0,0.0,0.0,0.0,0.0,0.0,0.05654866776461627,-0.00321434680137538,0.0,-2.3669554852024433e-05,-2.897325802230887e-20,-0.0005104840750134095,3.3928473025735495e-19,0.007654875417324555,0.0,-0.005064971405990551,0.0,-9.633381978967279e-22,0.0,0.0,0.0,0.0,0.0,0.0,0.0,0.0,0.0,0.0,0.0,0.0,0.0,3.2399999999999998,-0.00321434680137538,-0.0013561655959744,-1.6600454034218526e-18,-0.0005104840750134095,3.3928473025735495e-19,0.007654875417324555,0.0,-0.005064971405990551,0.0,-5.519521298322099e-20,0.0,0.0,0.09
-4495.983178250259,0.0,0.0,0.0,-404638.4860425236,0.0,-4495.983178250259,2479338.7561463322,43093.55,60.94689747964199,-1182336.967880994,-2.144814926781616e-13,-13016413.083597554,-6.984919309616089e-08,-28792634.370114613,-1.6763806343078613e-08,329.6861626554746,0.0,-1979037.6386790276,0.0,-1510.7732543945312,1.8189894035458565e-12,0.0,-0.003967020146805703,-0.07920718877542679,-2.9004392327125616e-05,-0.0005583627773992887,-3.5087329972839236e-20,-6.547982445335511e-19,-0.0006325877300081433,-0.012887982555762494,4.1087995359480553e-19,7.667616281889324e-18,-1.1865639140268974e-21,-2.33479224353502e-20,0.6283185307179586,0.09999999999999999,1.8261621728060402,2.5780277650173216,0.0,0.0,0.0,0.0,0.0,0.0,0.0,0.0,0.0,0.0,0.07539822368615502,-0.005708540624517571,0.0,-4.1141301008837496e-05,-5.004359913018972e-20,-0.0009177541588748187,5.860153286600084e-19,0.011909531541567412,0.0,-0.007074521463145594,0.0,-1.6872238103781355e-21,0.0,0.0,0.0,0.0,0.0,0.0,0.0,0.0,0.0,0.0,0.0,0.0,0.0,4.319999999999999,-0.005708540624517571,-0.0023572229114837044,-2.8672870218044285e-18,-0.0009177541588748187,5.860153286600084e-19,0.011909531541567412,0.0,-0.007074521463145594,0.0,-9.667080342864827e-20,0.0,0.0,0.11999999999999998
-4495.983178250259,0.0,0.0,0.0,-404638.4860425236,0.0,-4495.983178250259,2479338.7561463322,43093.55,60.94689747964199,-1182336.967880994,-2.144814926781616e-13,-13016413.083597554,-6.984919309616089e-08,-28792634.370114613,-1.6763806343078613e-08,329.6861626554746,0.0,-1979037.6386790276,0.0,-1510.7732543945312,1.8189894035458565e-12,0.0,-0.003967020146805703,-0.07920718877542679,-2.9004392327125616e-05,-0.0005583627773992887,-3.5087329972839236e-20,-6.547982445335511e-19,-0.0006325877300081433,-0.012887982555762494,4.1087995359480553e-19,7.667616281889324e-18,-1.1865639140268974e-21,-2.33479224353502e-20,0.6283185307179586,0.09999999999999999,1.8261621728060402,2.5780277650173216,0.0,0.0,0.0,0.0,0.0,0.0,0.0,0.0,0.0,0.0,0.09424777960769377,-0.008909522536290296,0.0,-6.282554861313755e-05,-7.710664073906246e-20,-0.0014502335695771836,9.029119785617259e-19,0.016355976983956362,0.0,-0.008527844739944881,0.0,-2.6431795623887886e-21,0.0,0.0,0.0,0.0,0.0,0.0,0.0,0.0,0.0,0.0,0.0,0.0,0.0,5.399999999999999,-0.008909522536290296,-0.003599638781126764,-4.417885086779774e-18,-0.0014502335695771836,9.029119785617259e-19,0.016355976983956362,0.0,-0.008527844739944881,0.0,-1.5144303342011345e-19,0.0,0.0,0.15
-4502.613087712638,0.0,0.0,0.0,-405235.17789413733,0.0,-4502.613087712638,2479338.7561463322,43093.55,60.94689747964199,-1439856.89134538,-3.2304419830601817e-13,-12940814.71553813,-6.984919309616089e-08,-20309538.20054082,-4.6566128730773926e-08,769.0258143122774,0.0,-1978716.2030216146,0.0,-3872.9032816383988,4.547473508864641e-12,0.0,-0.008909522536290296,-0.11844249136344374,-6.282554861313755e-05,-0.0007892721594902626,-7.710664073906246e-20,-1.0001532800280298e-18,-0.0014502335695771836,-0.019884022230495665,9.029119785617259e-19,1.1711221644344675e-17,-2.6431795623887886e-21,-3.618647082409832e-20,0.6283185307179586,0.15,1.8213686625131607,2.37642043362986,0.0,0.0,0.0,0.0,0.0,0.0,0.0,0.0,0.0,0.0,0.11309733552923253,-0.012813878959482572,0.0,-8.838668887835425e-05,-1.1036335909839662e-19,-0.002112278550616673,1.2923240119562142e-18,0.021073585447025797,0.0,-0.00957367969527336,0.0,-3.8413309147976705e-21,0.0,0.0,0.0,0.0,0.0,0.0,0.0,0.0,0.0,0.0,0.0,0.0,0.0,6.479999999999999,-0.012813878959482572,-0.00506418423786559,-6.3233546892248616e-18,-0.002112278550616673,1.2923240119562142e-18,0.021073585447025797,0.0,-0.00957367969527336,0.0,-2.2009204913103414e-19,0.0,0.0,0.18000000000000002
-4500.619848279008,0.0,0.0,0.0,-405055.78634511074,0.0,-4500.619848279008,2479338.7561463322,43093.55,60.94689747964199,-1695221.4833318857,-4.239983835045045e-13,-12848991.988888191,-8.568167686462402e-08,-11813183.296059772,-4.936009645462036e-08,1407.8238618371543,0.0,-1978269.9197291064,0.0,-7730.010514484718,7.275957614183426e-12,0.0,-0.015805662466786424,-0.15734140663754315,-0.00010741705495242442,-0.0009892500093240952,-1.3590190287280896e-19,-1.3330995389860297e-18,-0.002627827807303452,-0.02728859050406535,1.5913549199651804e-18,1.560909813199989e-17,-4.738516379646996e-21,-4.723096758825627e-20,0.6283185307179586,0.20000000000000004,1.8146647884018339,2.4039976927425313,0.0,0.0,0.0,0.0,0.0,0.0,0.0,0.0,0.0,0.0,0.1319468914507713,-0.017417757599446183,0.0,-0.00011749196700950039,-1.4970058816814437e-19,-0.002908349816317421,1.7529214667903264e-18,0.02636318631290696,0.0,-0.010633469225887992,0.0,-5.225953833801607e-21,0.0,0.0,0.0,0.0,0.0,0.0,0.0,0.0,0.0,0.0,0.0,0.0,0.0,7.559999999999999,-0.017417757599446183,-0.006731793836334677,-8.577211892660741e-18,-0.002908349816317421,1.7529214667903264e-18,0.02636318631290696,0.0,-0.010633469225887992,0.0,-2.9942509860704413e-19,0.0,0.0,0.21000000000000005
-4500.619848279008,0.0,0.0,0.0,-405055.78634511074,0.0,-4500.619848279008,2479338.7561463322,43093.55,60.94689747964199,-1695221.4833318857,-4.239983835045045e-13,-12848991.988888191,-8.568167686462402e-08,-11813183.296059772,-4.936009645462036e-08,1407.8238618371543,0.0,-1978269.9197291064,0.0,-7730.010514484718,7.275957614183426e-12,0.0,-0.015805662466786424,-0.15734140663754315,-0.00010741705495242442,-0.0009892500093240952,-1.3590190287280896e-19,-1.3330995389860297e-18,-0.002627827807303452,-0.02728859050406535,1.5913549199651804e-18,1.560909813199989e-17,-4.738516379646996e-21,-4.723096758825627e-20,0.6283185307179586,0.20000000000000004,1.8146647884018339,2.4039976927425313,0.0,0.0,0.0,0.0,0.0,0.0,0.0,0.0,0.0,0.0,0.15079644737231004,-0.02271687010689661,0.0,-0.00014980420515167475,-1.9492029084813213e-19,-0.0038427936856491344,2.2823800564503957e-18,0.03255934083287243,0.0,-0.012175053447019473,0.0,-6.802457341331046e-21,0.0,0.0,0.0,0.0,0.0,0.0,0.0,0.0,0.0,0.0,0.0,0.0,0.0,8.639999999999999,-0.02271687010689661,-0.008583148708502908,-1.1168110007060457e-17,-0.0038427936856491344,2.2823800564503957e-18,0.03255934083287243,0.0,-0.012175053447019473,0.0,-3.897520959760518e-19,0.0,0.0,0.24000000000000007
-4501.8783859404,0.0,0.0,0.0,-405169.0547346359,0.0,-4501.8783859404,2479338.7561463322,43093.55,60.94689747964199,-1948087.5687130822,-5.280996572937514e-13,-12741094.108574416,-6.565824151039124e-08,-3315964.949854235,-2.9336661100387573e-08,2258.538679015124,0.0,-1977701.8878967832,0.0,-13377.757990105078,1.0913936421275139e-11,0.0,-0.024636933714079108,-0.19583657779927255,-0.00016122792810841242,-0.0011578268828844156,-2.115486199511808e-19,-1.6916526050215718e-18,-0.004185734996835774,-0.035090260594197495,2.4770706218739152e-18,1.9806366697914343e-17,-7.385958813943954e-21,-5.903724931369142e-20,0.6283185307179586,0.25000000000000006,1.8060575819088087,2.347644839330892,0.0,0.0,0.0,0.0,0.0,0.0,0.0,0.0,0.0,0.0,0.1696460032938488,-0.02870649497871484,0.0,-0.00018497603629305377,-2.4683829256831983e-19,-0.004919658688213062,2.8902480744192807e-18,0.0398590619255135,0.0,-0.014505128218850026,0.0,-8.602119725365727e-21,0.0,0.0,0.0,0.0,0.0,0.0,0.0,0.0,0.0,0.0,0.0,0.0,0.0,9.719999999999999,-0.02870649497871484,-0.01059834619065072,-1.414279238638016e-17,-0.004919658688213062,2.8902480744192807e-18,0.0398590619255135,0.0,-0.014505128218850026,0.0,-4.92865155129691e-19,0.0,0.0,0.2700000000000001
-4501.8783859404,0.0,0.0,0.0,-405169.0547346359,0.0,-4501.8783859404,2479338.7561463322,43093.55,60.94689747964199,-1948087.5687130822,-5.280996572937514e-13,-12741094.108574416,-6.565824151039124e-08,-3315964.949854235,-2.9336661100387573e-08,2258.538679015124,0.0,-1977701.8878967832,0.0,-13377.757990105078,1.0913936421275139e-11,0.0,-0.024636933714079108,-0.19583657779927255,-0.00016122792810841242,-0.0011578268828844156,-2.115486199511808e-19,-1.6916526050215718e-18,-0.004185734996835774,-0.035090260594197495,2.4770706218739152e-18,1.9806366697914343e-17,-7.385958813943954e-21,-5.903724931369142e-20,0.6283185307179586,0.25000000000000006,1.8060575819088087,2.347644839330892,0.0,0.0,0.0,0.0,0.0,0.0,0.0,0.0,0.0,0.0,0.18849555921538755,-0.03538148070203916,0.0,-0.0002226475859658741,-3.0471417559956434e-19,-0.006142611063494662,3.5678485488586685e-18,0.04823324877246446,0.0,-0.01766087986941725,0.0,-1.0585589677073009e-20,0.0,0.0,0.0,0.0,0.0,0.0,0.0,0.0,0.0,0.0,0.0,0.0,0.0,10.799999999999997,-0.03538148070203916,-0.012756766994620763,-1.745883621966329e-17,-0.006142611063494662,3.5678485488586685e-18,0.04823324877246446,0.0,-0.01766087986941725,0.0,-6.065096121535354e-19,0.0,0.0,0.3000000000000001
-4485.653139209622,0.0,0.0,0.0,-403708.78252886597,0.0,-4485.653139209622,2479338.7561463322,43093.55,60.94689747964199,-2198124.551406277,-6.209594599461194e-13,-12617293.102182537,-6.146728992462158e-08,5169681.318742999,-2.0489096641540527e-08,3329.452968251775,0.0,-1977015.8718116856,0.0,-21060.43247063458,1.8189894035458565e-11,0.0,-0.03538148070203916,-0.23386140485680554,-0.0002226475859658741,-0.0012932872077823928,-3.0471417559956434e-19,-2.0315315139637097e-18,-0.006142611063494662,-0.04323756985648923,3.5678485488586685e-18,2.3784390246671517e-17,-1.0585589677073009e-20,-6.917650993651406e-20,0.6283185307179586,0.3000000000000001,1.7955560708032563,2.739018507581711,0.0,0.0,0.0,0.0,0.0,0.0,0.0,0.0,0.0,0.0,0.2073451151369263,-0.0427362491544875,0.0,-0.00026244858262840026,-3.68608592017981e-19,-0.007514975888509285,4.315885411643277e-18,0.057442976159198474,0.0,-0.021428001723249587,0.0,-1.2724263593720881e-20,0.0,0.0,0.0,0.0,0.0,0.0,0.0,0.0,0.0,0.0,0.0,0.0,0.0,11.879999999999999,-0.0427362491544875,-0.015037196123797789,-2.1119716614889954e-17,-0.007514975888509285,4.315885411643277e-18,0.057442976159198474,0.0,-0.021428001723249587,0.0,-7.290466013321722e-19,0.0,0.0,0.3300000000000001
-4476.00654811487,0.0,0.0,0.0,-402840.5893303382,0.0,-4476.00654811487,2479338.7561463322,43093.55,60.94689747964199,-2445007.3235750548,-7.101796223831398e-13,-12477787.21066856,-8.102506399154663e-08,13631402.147569582,-3.259629011154175e-08,4625.800075786072,0.0,-1976216.2596023113,0.0,-30989.84326577559,2.1827872842550278e-11,0.0,-0.04801413899571388,-0.27135015213665087,-0.0002899801077404425,-0.0013942011009342335,-4.147054566979581e-19,-2.377501885956462e-18,-0.008514432978230136,-0.05168258861087118,4.855542663107639e-18,2.783313423843559e-17,-1.4241733463276263e-20,-7.789563778722421e-20,0.6283185307179586,0.35000000000000014,1.7831712697178919,2.9479391220979947,0.0,0.0,0.0,0.0,0.0,0.0,0.0,0.0,0.0,0.0,0.22619467105846505,-0.05076479927641757,0.0,-0.0003040032829792398,-4.388551291879825e-19,-0.009039863747276463,5.138258251004466e-18,0.06713652336966204,0.0,-0.025456565740818164,0.0,-1.504728011152285e-20,0.0,0.0,0.0,0.0,0.0,0.0,0.0,0.0,0.0,0.0,0.0,0.0,0.0,12.959999999999997,-0.05076479927641757,-0.0174181050728317,-2.5144546720139903e-17,-0.009039863747276463,5.138258251004466e-18,0.06713652336966204,0.0,-0.025456565740818164,0.0,-8.62145643541402e-19,0.0,0.0,0.36000000000000015
-4476.00654811487,0.0,0.0,0.0,-402840.5893303382,0.0,-4476.00654811487,2479338.7561463322,43093.55,60.94689747964199,-2445007.3235750548,-7.101796223831398e-13,-12477787.21066856,-8.102506399154663e-08,13631402.147569582,-3.259629011154175e-08,4625.800075786072,0.0,-1976216.2596023113,0.0,-30989.84326577559,2.1827872842550278e-11,0.0,-0.04801413899571388,-0.27135015213665087,-0.0002899801077404425,-0.0013942011009342335,-4.147054566979581e-19,-2.377501885956462e-18,-0.008514432978230136,-0.05168258861087118,4.855542663107639e-18,2.783313423843559e-17,-1.4241733463276263e-20,-7.789563778722421e-20,0.6283185307179586,0.35000000000000014,1.7831712697178919,2.9479391220979947,0.0,0.0,0.0,0.0,0.0,0.0,0.0,0.0,0.0,0.0,0.2450442269800038,-0.05946071102338138,0.0,-0.00034693614363282124,-5.151606101444373e-19,-0.010720322578091307,6.031526468743781e-18,0.07697473712460952,0.0,-0.029411743572264882,0.0,-1.7533556394702922e-20,0.0,0.0,0.0,0.0,0.0,0.0,0.0,0.0,0.0,0.0,0.0,0.0,0.0,14.039999999999997,-0.05946071102338138,-0.019877976790705184,-2.9516528732660646e-17,-0.010720322578091307,6.031526468743781e-18,0.07697473712460952,0.0,-0.029411743572264882,0.0,-1.0045987812710933e-18,0.0,0.0,0.3900000000000002
-4504.7369123904955,0.0,0.0,0.0,-405426.3221151446,0.0,-4504.7369123904955,2479338.7561463322,43093.55,60.94689747964199,-2688411.843828264,-7.881038619749081e-13,-12322803.980616175,-7.729977369308472e-08,22057075.387831587,-4.470348358154297e-08,6152.809515964589,0.0,-1975307.98217698,0.0,-43382.86862412095,2.9103830456733704e-11,0.0,-0.06250648139535678,-0.3082380646435786,-0.0003614890213169112,-0.001460424750891557,-5.419005077848518e-19,-2.709296959996745e-18,-0.011315579500208799,-0.060411019641358046,6.344547534309467e-18,3.171519460323066e-17,-1.8367103609080413e-20,-8.549077683904042e-20,0.6283185307179586,0.4000000000000002,1.768916168596145,2.2183530797757016,0.0,0.0,0.0,0.0,0.0,0.0,0.0,0.0,0.0,0.0,0.2638937829015426,-0.06881714959857742,0.0,-0.00039087586575702304,-5.973868186272834e-19,-0.012559447968372058,6.994063892598188e-18,0.0867295592358832,0.0,-0.033092789978762104,0.0,-2.0127625496382095e-20,0.0,0.0,0.0,0.0,0.0,0.0,0.0,0.0,0.0,0.0,0.0,0.0,0.0,15.119999999999997,-0.06881714959857742,-0.022395537421399558,-3.422774344409053e-17,-0.012559447968372058,6.994063892598188e-18,0.0867295592358832,0.0,-0.033092789978762104,0.0,-1.1532279925626026e-18,0.0,0.0,0.4200000000000002
-4504.7369123904955,0.0,0.0,0.0,-405426.3221151446,0.0,-4504.7369123904955,2479338.7561463322,43093.55,60.94689747964199,-2688411.843828264,-7.881038619749081e-13,-12322803.980616175,-7.729977369308472e-08,22057075.387831587,-4.470348358154297e-08,6152.809515964589,0.0,-1975307.98217698,0.0,-43382.86862412095,2.9103830456733704e-11,0.0,-0.06250648139535678,-0.3082380646435786,-0.0003614890213169112,-0.001460424750891557,-5.419005077848518e-19,-2.709296959996745e-18,-0.011315579500208799,-0.060411019641358046,6.344547534309467e-18,3.171519460323066e-17,-1.8367103609080413e-20,-8.549077683904042e-20,0.6283185307179586,0.4000000000000002,1.768916168596145,2.2183530797757016,0.0,0.0,0.0,0.0,0.0,0.0,0.0,0.0,0.0,0.0,0.28274333882308134,-0.07882686995399057,0.0,-0.00043545655533720827,-6.855291797354971e-19,-0.014560414292274277,8.025808977165464e-18,0.09632069541052336,0.0,-0.036477741648723895,0.0,-2.2898177666748345e-20,0.0,0.0,0.0,0.0,0.0,0.0,0.0,0.0,0.0,0.0,0.0,0.0,0.0,16.199999999999996,-0.07882686995399057,-0.024949822782127016,-3.927792873190923e-17,-0.014560414292274277,8.025808977165464e-18,0.09632069541052336,0.0,-0.036477741648723895,0.0,-1.311968938845399e-18,0.0,0.0,0.45000000000000023
-4529.535233313116,0.0,0.0,0.0,-407658.1709981807,0.0,-4529.535233313116,2479338.7561463322,43093.55,60.94689747964199,-2928017.9799432284,-8.565388573917958e-13,-12152599.5855324,-7.35744833946228e-08,30434849.876987897,-4.0046870708465576e-08,7916.653828543378,0.0,-1974296.4604415926,0.0,-58467.867812106386,4.3655745685100555e-11,0.0,-0.07882686995399057,-0.3444614869446299,-0.00043545655533720827,-0.0014926813247527965,-6.855291797354971e-19,-3.0478274077923196e-18,-0.014560414292274277,-0.06943198494983664,8.025808977165464e-18,3.567540175623431e-17,-2.2898177666748345e-20,-9.553593224976084e-20,0.6283185307179586,0.45000000000000023,1.7528057190675093,1.4064481948034093,0.0,0.0,0.0,0.0,0.0,0.0,0.0,0.0,0.0,0.0,0.3015928947446201,-0.08948222154650114,0.0,-0.00048031564269987226,1.4400015512643258e-14,-0.016726423908626283,-9.309428200934545e-13,0.10578605392766993,0.0,-0.03968824457359794,0.0,-1.538056599324821e-20,0.0,0.0,0.0,0.0,0.0,0.0,0.0,0.0,0.0,0.0,0.0,0.0,0.0,17.279999999999998,-0.08948222154650114,-0.027520059160816308,8.250601137973732e-13,-0.016726423908626283,-9.309428200934545e-13,0.10578605392766993,0.0,-0.03968824457359794,0.0,-8.812415179355615e-19,0.0,0.0,0.48000000000000026
-4507.907233389784,0.0,0.0,0.0,-405711.6510050805,0.0,-4507.907233389784,2479338.7561463322,43093.55,60.94689747964199,-3163515.5121840374,4.8415070375191714e-05,-11967454.829963742,0.00020531099289655685,38753033.92841091,0.00019456353038549423,9922.1552734375,-0.09530624747276306,-1973187.5,0.0,0.0,0.0,0.0,-0.09694051378924873,-0.37995797450352686,-0.0005101960029770687,-0.0014912515882512132,6.750841664418577e-14,3.884317189115223e-12,-0.01826365751836412,-0.07874504465504098,-4.364335713305031e-12,-2.511210650206024e-10,2.0190933808817898e-19,2.0280924144840297e-17,0.6283185307179586,0.5000000000000002,1.734856818765347,2.1106321020821452,0.0,0.0,0.0,0.0,0.0,0.0,0.0,0.0,0.0,0.0,0.32044245066615884,-0.1007751533153806,0.0,-0.0005250880219600446,1.1191488610626107e-13,-0.019060581212577483,-7.2352638658498e-12,0.1152086600292661,0.0,-0.04290188157126852,0.0,4.732927704423191e-19,0.0,0.0,0.0,0.0,0.0,0.0,0.0,0.0,0.0,0.0,0.0,0.0,0.0,18.359999999999996,-0.1007751533153806,-0.030085327531183245,6.412250638576055e-12,-0.019060581212577483,-7.2352638658498e-12,0.1152086600292661,0.0,-0.04290188157126852,0.0,2.7117678220399e-17,0.0,0.0,0.5100000000000002
-4507.907233389784,0.0,0.0,0.0,-405711.6510050805,0.0,-4507.907233389784,2479338.7561463322,43093.55,60.94689747964199,-3163515.5121840374,4.8415070375191714e-05,-11967454.829963742,0.00020531099289655685,38753033.92841091,0.00019456353038549423,9922.1552734375,-0.09530624747276306,-1973187.5,0.0,0.0,0.0,0.0,-0.09694051378924873,-0.37995797450352686,-0.0005101960029770687,-0.0014912515882512132,6.750841664418577e-14,3.884317189115223e-12,-0.01826365751836412,-0.07874504465504098,-4.364335713305031e-12,-2.511210650206024e-10,2.0190933808817898e-19,2.0280924144840297e-17,0.6283185307179586,0.5000000000000002,1.734856818765347,2.1106321020821452,0.0,0.0,0.0,0.0,0.0,0.0,0.0,0.0,0.0,0.0,0.3392920065876976,-0.1126972189229623,0.0,-0.0005694105457864283,3.1156925742761235e-13,-0.02156589995970459,-2.0144205214053028e-11,0.12464072160361658,0.0,-0.04625896788170541,0.0,2.376870544769113e-18,0.0,0.0,0.0,0.0,0.0,0.0,0.0,0.0,0.0,0.0,0.0,0.0,0.0,19.439999999999998,-0.1126972189229623,-0.03262482108380306,1.7851603476627265e-11,-0.02156589995970459,-2.0144205214053028e-11,0.12464072160361658,0.0,-0.04625896788170541,0.0,1.3618465066423097e-16,0.0,0.0,0.5400000000000003
-4503.176573178392,0.0,0.0,0.0,-405285.89158605505,0.0,-4503.176573178392,2479338.7561463322,43093.55,60.94689747964199,-3394607.8781777974,0.00011762278552859372,-11767675.32105932,0.000554822850972414,47000154.593938604,0.0005153901875019073,12170.755859375,-0.0952644795179367,-1971987.75,0.0,0.0,0.0,0.0,-0.11680953219834295,-0.4146663967829536,-0.0005840219121254975,-0.0014561650128224132,4.002666316190551e-13,9.423002545338149e-12,-0.022439540648046038,-0.08833427630811776,-2.587959288034449e-11,-6.093310606817769e-10,3.509089301266773e-18,1.2839468349465433e-16,0.6283185307179586,0.5500000000000003,1.7150882936036125,2.232859636160197,0.0,0.0,0.0,0.0,0.0,0.0,0.0,0.0,0.0,0.0,0.35814156250923634,-0.12523958223454829,0.0,-0.0006129192528037718,6.108450221560215e-13,-0.024245233395994402,-3.949735600452222e-11,0.13405068950849386,0.0,-0.049798112228079616,0.0,6.769228521827245e-18,0.0,0.0,0.0,0.0,0.0,0.0,0.0,0.0,0.0,0.0,0.0,0.0,0.0,20.519999999999996,-0.12523958223454829,-0.035117686367968075,3.4998841706115297e-11,-0.024245233395994402,-3.949735600452222e-11,0.13405068950849386,0.0,-0.049798112228079616,0.0,3.87848224860282e-16,0.0,0.0,0.5700000000000003
-4503.176573178392,0.0,0.0,0.0,-405285.89158605505,0.0,-4503.176573178392,2479338.7561463322,43093.55,60.94689747964199,-3394607.8781777974,0.00011762278552859372,-11767675.32105932,0.000554822850972414,47000154.593938604,0.0005153901875019073,12170.755859375,-0.0952644795179367,-1971987.75,0.0,0.0,0.0,0.0,-0.11680953219834295,-0.4146663967829536,-0.0005840219121254975,-0.0014561650128224132,4.002666316190551e-13,9.423002545338149e-12,-0.022439540648046038,-0.08833427630811776,-2.587959288034449e-11,-6.093310606817769e-10,3.509089301266773e-18,1.2839468349465433e-16,0.6283185307179586,0.5500000000000003,1.7150882936036125,2.232859636160197,0.0,0.0,0.0,0.0,0.0,0.0,0.0,0.0,0.0,0.0,0.3769911184307751,-0.13839302303159598,0.0,-0.0006552484569449545,1.0095743301399309e-12,-0.02710125793688002,-6.528723016154427e-11,0.14331356841230378,0.0,-0.053443823388743615,0.0,1.4808642955228676e-17,0.0,0.0,0.0,0.0,0.0,0.0,0.0,0.0,0.0,0.0,0.0,0.0,0.0,21.599999999999994,-0.13839302303159598,-0.03754297111540553,5.7844348221765255e-11,-0.02710125793688002,-6.528723016154427e-11,0.14331356841230378,0.0,-0.053443823388743615,0.0,8.484727416507421e-16,0.0,0.0,0.6000000000000003
-4510.94238766852,0.0,0.0,0.0,-405984.8148901668,0.0,-4510.94238766852,2479338.7561463322,43093.55,60.94689747964199,-3621010.9213649337,0.0001870104233263187,-11553591.304074753,0.0009633773006498814,55164945.262046404,0.0008809445425868034,14661.451171875,-0.09521616995334625,-1970703.75,0.0,0.0,0.0,0.0,-0.13839302303159598,-0.44852704317297626,-0.0006552484569449545,-0.0013872513087493606,1.0095743301399309e-12,1.4946486147789663e-11,-0.02710125793688002,-0.09817422483282283,-6.528723016154427e-11,-9.668544476074593e-10,1.4808642955228676e-17,3.423479526304567e-16,0.6283185307179586,0.6000000000000003,1.6935208780310693,1.9733485653532445,0.0,0.0,0.0,0.0,0.0,0.0,0.0,0.0,0.0,0.0,0.39584067435231385,-0.152147942973044,0.0,-0.0006960328854404062,1.5075673429536933e-12,-0.030136520300417243,-9.750592658735789e-11,0.1522416530572333,0.0,-0.05704276432124544,0.0,2.7737359062695992e-17,0.0,0.0,0.0,0.0,0.0,0.0,0.0,0.0,0.0,0.0,0.0,0.0,0.0,22.679999999999996,-0.152147942973044,-0.039879746738048,8.637724608299817e-11,-0.030136520300417243,-9.750592658735789e-11,0.1522416530572333,0.0,-0.05704276432124544,0.0,1.5892336091314254e-15,0.0,0.0,0.6300000000000003
-4500.439911484912,0.0,0.0,0.0,-405039.59203364205,0.0,-4500.439911484912,2479338.7561463322,43093.55,60.94689747964199,-3842449.899250582,0.00025670935215252745,-11325558.90098268,0.0014232136309146881,63236385.221000284,0.0012844642624258995,17392.080078125,-0.09516265243291855,-1969343.25,0.0,0.0,0.0,0.0,-0.1616471362125356,-0.4814817253991638,-0.0007221851590120485,-0.0012846467251261008,1.8946055681440706e-12,2.0451382610642536e-11,-0.03226083084894929,-0.10824680346722237,-1.2255254297306706e-10,-1.3236277834582297e-09,3.9720592609444417e-17,6.748298263165806e-16,0.6283185307179586,0.6500000000000004,1.6701771932837224,2.3012058866069243,0.0,0.0,0.0,0.0,0.0,0.0,0.0,0.0,0.0,0.0,0.4146902302738526,-0.16649437181023735,0.0,-0.0007349101897523501,2.104612424542704e-12,-0.033353501109753506,-1.3614514598113022e-10,0.16063612553431594,0.0,-0.06042549517439942,0.0,4.6873011016505817e-17,0.0,0.0,0.0,0.0,0.0,0.0,0.0,0.0,0.0,0.0,0.0,0.0,0.0,23.759999999999998,-0.16649437181023735,-0.042107252193968145,1.205854094370924e-10,-0.033353501109753506,-1.3614514598113022e-10,0.16063612553431594,0.0,-0.06042549517439942,0.0,2.6856257043159963e-15,0.0,0.0,0.6600000000000004
-4500.439911484912,0.0,0.0,0.0,-405039.59203364205,0.0,-4500.439911484912,2479338.7561463322,43093.55,60.94689747964199,-3842449.899250582,0.00025670935215252745,-11325558.90098268,0.0014232136309146881,63236385.221000284,0.0012844642624258995,17392.080078125,-0.09516265243291855,-1969343.25,0.0,0.0,0.0,0.0,-0.1616471362125356,-0.4814817253991638,-0.0007221851590120485,-0.0012846467251261008,1.8946055681440706e-12,2.0451382610642536e-11,-0.03226083084894929,-0.10824680346722237,-1.2255254297306706e-10,-1.3236277834582297e-09,3.9720592609444417e-17,6.748298263165806e-16,0.6283185307179586,0.6500000000000004,1.6701771932837224,2.3012058866069243,0.0,0.0,0.0,0.0,0.0,0.0,0.0,0.0,0.0,0.0,0.43353978619539135,-0.1814219738458296,0.0,-0.0007715233468377401,2.800476250479226e-12,-0.03675467496449005,-1.8119620296611306e-10,0.16833555508709727,0.0,-0.06346473985902264,0.0,7.360052604052953e-17,0.0,0.0,0.0,0.0,0.0,0.0,0.0,0.0,0.0,0.0,0.0,0.0,0.0,24.839999999999993,-0.1814219738458296,-0.0442050315696105,1.6045546977908125e-10,-0.03675467496449005,-1.8119620296611306e-10,0.16833555508709727,0.0,-0.06346473985902264,0.0,4.216999512065054e-15,0.0,0.0,0.6900000000000004
-4510.054600095857,0.0,0.0,0.0,-405904.914008627,0.0,-4510.054600095857,2479338.7561463322,43093.55,60.94689747964199,-4058658.8541272753,0.00032683566880889486,-11083960.756402431,0.0019265874288976192,71203771.00462943,0.0017190948128700256,20361.193359375,-0.09510442614555359,-1967913.0,0.0,0.0,0.0,0.0,-0.1865251525664559,-0.5134738845865742,-0.0007831638460639768,-0.0011490947406929864,3.0543471162919673e-12,2.5934338277986014e-11,-0.03792976284501496,-0.11854907181114198,-1.9763651778690873e-10,-1.679590922417955e-09,8.444481914868519e-17,1.1364277156783875e-15,0.6283185307179586,0.7000000000000004,1.6450817236582709,2.0420546741786403,0.0,0.0,0.0,0.0,0.0,0.0,0.0,0.0,0.0,0.0,0.4523893421169301,-0.1969200546144783,0.0,-0.0008055220458692156,3.5949036758581022e-12,-0.04034254253698875,-2.3265002236852948e-10,0.17524237627735703,0.0,-0.06610728587689417,0.0,1.0936381025734357e-16,0.0,0.0,0.0,0.0,0.0,0.0,0.0,0.0,0.0,0.0,0.0,0.0,0.0,25.919999999999995,-0.1969200546144783,-0.04615301353304956,2.0597280838273498e-10,-0.04034254253698875,-2.3265002236852948e-10,0.17524237627735703,0.0,-0.06610728587689417,0.0,6.266084759215327e-15,0.0,0.0,0.7200000000000004
-4510.054600095857,0.0,0.0,0.0,-405904.914008627,0.0,-4510.054600095857,2479338.7561463322,43093.55,60.94689747964199,-4058658.8541272753,0.00032683566880889486,-11083960.756402431,0.0019265874288976192,71203771.00462943,0.0017190948128700256,20361.193359375,-0.09510442614555359,-1967913.0,0.0,0.0,0.0,0.0,-0.1865251525664559,-0.5134738845865742,-0.0007831638460639768,-0.0011490947406929864,3.0543471162919673e-12,2.5934338277986014e-11,-0.03792976284501496,-0.11854907181114198,-1.9763651778690873e-10,-1.679590922417955e-09,8.444481914868519e-17,1.1364277156783875e-15,0.6283185307179586,0.7000000000000004,1.6450817236582709,2.0420546741786403,0.0,0.0,0.0,0.0,0.0,0.0,0.0,0.0,0.0,0.0,0.47123889803846886,-0.21297756783252902,0.0,-0.0008365625868713958,4.487617482299063e-12,-0.04411962332284016,-2.90497127339895e-10,0.18132043723225474,0.0,-0.0683710790112558,0.0,1.556575575203434e-16,0.0,0.0,0.0,0.0,0.0,0.0,0.0,0.0,0.0,0.0,0.0,0.0,0.0,26.999999999999993,-0.21297756783252902,-0.047931505526277264,2.571215418048607e-10,-0.04411962332284016,-2.90497127339895e-10,0.18132043723225474,0.0,-0.0683710790112558,0.0,8.918521095230526e-15,0.0,0.0,0.7500000000000004
-4506.02117758932,0.0,0.0,0.0,-405541.9059830389,0.0,-4506.02117758932,2479338.7561463322,43093.55,60.94689747964199,-4269382.648112502,0.0003974867794367019,-10829204.354720261,0.0024658464826643467,79056714.97927015,0.002178104594349861,23567.3671875,-0.09504113346338272,-1966421.25,0.0,0.0,0.0,0.0,-0.21297756783252902,-0.5444486936239241,-0.0008365625868713958,-0.000981614204986894,4.487617482299063e-12,3.139196626737645e-11,-0.04411962332284016,-0.12908422999497013,-2.90497127339895e-10,-2.0346827902192898e-09,1.556575575203434e-16,1.7356118247772094e-15,0.6283185307179586,0.7500000000000004,1.6182607908314657,2.1578780762826657,0.0,0.0,0.0,0.0,0.0,0.0,0.0,0.0,0.0,0.0,0.4900884539600076,-0.22958312252912147,0.0,-0.0008643072368578309,5.478318328180596e-12,-0.04808842891895897,-3.547276401047104e-10,0.18656982638835684,0.0,-0.07031475670996859,0.0,2.1401931461064508e-16,0.0,0.0,0.0,0.0,0.0,0.0,0.0,0.0,0.0,0.0,0.0,0.0,0.0,28.079999999999995,-0.22958312252912147,-0.04952115687456769,3.138845190339132e-10,-0.04808842891895897,-3.547276401047104e-10,0.18656982638835684,0.0,-0.07031475670996859,0.0,1.2262403461472519e-14,0.0,0.0,0.7800000000000005
-4500.94744509419,0.0,0.0,0.0,-405085.2700584771,0.0,-4500.94744509419,2479338.7561463322,43093.55,60.94689747964199,-4474379.370573445,0.0004687383363430339,-10561719.772457743,0.003033534623682499,86785114.53064623,0.0026547852903604507,27007.48828125,-0.09497307240962982,-1964875.5,0.0,0.0,0.0,0.0,-0.24095218171649135,-0.574353153341633,-0.0008808081248080976,-0.0007830953876632016,6.193064958242374e-12,3.682085269126976e-11,-0.05084203443050102,-0.13984997122850898,-4.010892613937748e-10,-2.3888416256694314e-09,2.604068289430521e-16,2.478782520413947e-15,0.6283185307179586,0.8000000000000005,1.5897425262523117,2.3013254544484147,0.0,0.0,0.0,0.0,0.0,0.0,0.0,0.0,0.0,0.0,0.5089380098815465,-0.24672499040403673,0.0,-0.0008884232591779779,6.566684736546619e-12,-0.052251426892277957,-4.2533128501924803e-10,0.19099295015426662,0.0,-0.07199647278598291,0.0,2.860213657855841e-16,0.0,0.0,0.0,0.0,0.0,0.0,0.0,0.0,0.0,0.0,0.0,0.0,0.0,29.16,-0.24672499040403673,-0.050902903172155414,3.762433207970982e-10,-0.052251426892277957,-4.2533128501924803e-10,0.19099295015426662,0.0,-0.07199647278598291,0.0,1.6387817110081496e-14,0.0,0.0,0.8100000000000005
-4500.94744509419,0.0,0.0,0.0,-405085.2700584771,0.0,-4500.94744509419,2479338.7561463322,43093.55,60.94689747964199,-4474379.370573445,0.0004687383363430339,-10561719.772457743,0.003033534623682499,86785114.53064623,0.0026547852903604507,27007.48828125,-0.09497307240962982,-1964875.5,0.0,0.0,0.0,0.0,-0.24095218171649135,-0.574353153341633,-0.0008808081248080976,-0.0007830953876632016,6.193064958242374e-12,3.682085269126976e-11,-0.05084203443050102,-0.13984997122850898,-4.010892613937748e-10,-2.3888416256694314e-09,2.604068289430521e-16,2.478782520413947e-15,0.6283185307179586,0.8000000000000005,1.5897425262523117,2.3013254544484147,0.0,0.0,0.0,0.0,0.0,0.0,0.0,0.0,0.0,0.0,0.5277875658030854,-0.26439111339909444,0.0,-0.0009085823366168811,7.752373176707396e-12,-0.05661101488495063,-5.022973969494335e-10,0.19456718886973012,0.0,-0.07344049938312236,0.0,3.7326330009695734e-16,0.0,0.0,0.0,0.0,0.0,0.0,0.0,0.0,0.0,0.0,0.0,0.0,0.0,30.24000000000001,-0.26439111339909444,-0.052057933228281957,4.441782642357606e-10,-0.05661101488495063,-5.022973969494335e-10,0.19456718886973012,0.0,-0.07344049938312236,0.0,2.1386411742680748e-14,0.0,0.0,0.8400000000000005
-4494.042248058243,0.0,0.0,0.0,-404463.8023252417,0.0,-4494.042248058243,2479338.7561463322,43093.55,60.94689747964199,-4673420.9412355535,0.0005406421606796708,-10281958.420722162,0.003622612915933132,94379145.45420678,0.0031429473310709,30676.072265625,-0.09490086883306503,-1963284.375,0.0,0.0,0.0,0.0,-0.27039419156235694,-0.6031361832955076,-0.0009143666066573151,-0.0005542466484553506,8.169167235495693e-12,4.221759185886079e-11,-0.058108300913772004,-0.15083650651510436,-5.293647508770303e-10,-2.7420070880594337e-09,4.0601007527529663e-16,3.3703474078430347e-15,0.6283185307179586,0.8500000000000005,1.5595568416360701,2.4900544473316915,0.0,0.0,0.0,0.0,0.0,0.0,0.0,0.0,0.0,0.0,0.5466371217246243,-0.28257138747102006,0.0,-0.000924259707140194,9.035010941853589e-12,-0.06116447237890352,-5.856144730796417e-10,0.19714464848043683,0.0,-0.0745528656628926,0.0,4.784392359298974e-16,0.0,0.0,0.0,0.0,0.0,0.0,0.0,0.0,0.0,0.0,0.0,0.0,0.0,31.320000000000018,-0.28257138747102006,-0.052956180393130596,5.176679948227294e-10,-0.06116447237890352,-5.856144730796417e-10,0.19714464848043683,0.0,-0.0745528656628926,0.0,2.7412548972246973e-14,0.0,0.0,0.8700000000000006
-4494.042248058243,0.0,0.0,0.0,-404463.8023252417,0.0,-4494.042248058243,2479338.7561463322,43093.55,60.94689747964199,-4673420.9412355535,0.0005406421606796708,-10281958.420722162,0.003622612915933132,94379145.45420678,0.0031429473310709,30676.072265625,-0.09490086883306503,-1963284.375,0.0,0.0,0.0,0.0,-0.27039419156235694,-0.6031361832955076,-0.0009143666066573151,-0.0005542466484553506,8.169167235495693e-12,4.221759185886079e-11,-0.058108300913772004,-0.15083650651510436,-5.293647508770303e-10,-2.7420070880594337e-09,4.0601007527529663e-16,3.3703474078430347e-15,0.6283185307179586,0.8500000000000005,1.5595568416360701,2.4900544473316915,0.0,0.0,0.0,0.0,0.0,0.0,0.0,0.0,0.0,0.0,0.5654866776461632,-0.30126406269492195,0.0,-0.0009341797333297452,1.0414174648307862e-11,-0.06589021868852438,-6.752688069815771e-10,0.19827739508149284,0.0,-0.07501134272323388,0.0,6.085798433210448e-16,0.0,0.0,0.0,0.0,0.0,0.0,0.0,0.0,0.0,0.0,0.0,0.0,0.0,32.40000000000003,-0.30126406269492195,-0.05352455602645112,5.96688254460179e-10,-0.06589021868852438,-6.752688069815771e-10,0.19827739508149284,0.0,-0.07501134272323388,0.0,3.486905651902877e-14,0.0,0.0,0.9000000000000006
-4508.795553875369,0.0,0.0,0.0,-405791.599848783,0.0,-4508.795553875369,2479338.7561463322,43093.55,60.94689747964199,-4571896.552550966,0.0006649055306132584,-10329416.186907122,0.004215160151943564,111707585.31143175,0.005148774944245815,34260.42578125,-0.09482473880052567,-1961634.75,0.0,0.0,0.0,0.0,-0.30126406269492195,-0.631544304510029,-0.0009341797333297452,-0.00022628226515501433,1.0414174648307862e-11,4.757617795356563e-11,-0.06589021868852438,-0.16030170285626352,-6.752688069815771e-10,-3.0939543917774084e-09,6.085798433210448e-16,4.806085187124386e-15,0.6283185307179586,0.9000000000000006,1.5277353975910029,2.1183692420727294,0.0,0.0,0.0,0.0,0.0,0.0,0.0,0.0,0.0,0.0,0.5843362335677021,-0.3204615774560162,0.0,-0.0009380031749730532,1.188942777897298e-11,-0.0707942293413865,-7.712472085669316e-10,0.19805292518139528,0.0,-0.07495392446731336,0.0,7.664982932910945e-16,0.0,0.0,0.0,0.0,0.0,0.0,0.0,0.0,0.0,0.0,0.0,0.0,0.0,33.48000000000003,-0.3204615774560162,-0.05374362309582724,6.81214032560752e-10,-0.0707942293413865,-7.712472085669316e-10,0.19805292518139528,0.0,-0.07495392446731336,0.0,4.391711720956046e-14,0.0,0.0,0.9300000000000006
-4502.835699968137,0.0,0.0,0.0,-405255.2129971323,0.0,-4502.835699968137,2479338.7561463322,43093.55,60.94689747964199,-5620861.368542364,0.0007942788627611567,-10342013.563617058,0.00428717490285635,114496880.37181047,0.0046380022540688515,38577.18359375,-0.0947439968585968,-1959915.75,0.0,0.0,0.0,0.0,-0.3335390766528111,-0.6594271538245062,-0.0009376074471329718,7.483148546067967e-05,1.2926064453791207e-11,5.289138121957414e-11,-0.07418875795479957,-0.1724920636181827,-8.387387287658218e-10,-3.4446011905980615e-09,8.859522361058075e-16,6.245653879485956e-15,0.6283185307179586,0.9500000000000006,1.4943115704107766,2.29562610165774,0.0,0.0,0.0,0.0,0.0,0.0,0.0,0.0,0.0,0.0,0.6031857894892411,-0.3401607547582878,0.0,-0.0009365684250465926,1.3460268004910306e-11,-0.07592715211266468,-8.735346481065849e-10,0.19712000536566449,0.0,-0.074944381122797,0.0,9.498453672077242e-16,0.0,0.0,0.0,0.0,0.0,0.0,0.0,0.0,0.0,0.0,0.0,0.0,0.0,34.560000000000045,-0.3401607547582878,-0.05366141798038434,7.712165477963374e-10,-0.07592715211266468,-8.735346481065849e-10,0.19712000536566449,0.0,-0.074944381122797,0.0,5.442213073105648e-14,0.0,0.0,0.9600000000000006
-4502.835699968137,0.0,0.0,0.0,-405255.2129971323,0.0,-4502.835699968137,2479338.7561463322,43093.55,60.94689747964199,-5620861.368542364,0.0007942788627611567,-10342013.563617058,0.00428717490285635,114496880.37181047,0.0046380022540688515,38577.18359375,-0.0947439968585968,-1959915.75,0.0,0.0,0.0,0.0,-0.3335390766528111,-0.6594271538245062,-0.0009376074471329718,7.483148546067967e-05,1.2926064453791207e-11,5.289138121957414e-11,-0.07418875795479957,-0.1724920636181827,-8.387387287658218e-10,-3.4446011905980615e-09,8.859522361058075e-16,6.245653879485956e-15,0.6283185307179586,0.9500000000000006,1.4943115704107766,2.29562610165774,0.0,0.0,0.0,0.0,0.0,0.0,0.0,0.0,0.0,0.0,0.62203534541078,-0.3603503482410118,0.0,-0.0009298635507567382,1.5126214530522528e-11,-0.08130452791927562,-9.821173374242841e-10,0.19545011624514846,0.0,-0.07491024264639422,0.0,1.1593512053964324e-15,0.0,0.0,0.0,0.0,0.0,0.0,0.0,0.0,0.0,0.0,0.0,0.0,0.0,35.64000000000006,-0.3603503482410118,-0.05327725698140991,8.666682526084009e-10,-0.08130452791927562,-9.821173374242841e-10,0.19545011624514846,0.0,-0.07491024264639422,0.0,6.64259310426202e-14,0.0,0.0,0.9900000000000007
-4458.784369798015,0.0,0.0,0.0,-401290.5932818213,0.0,-4458.784369798015,2479338.7561463322,43093.55,60.94689747964199,-5820229.790444551,0.0008799842717037768,-10005731.013044268,0.0048790182918310165,122233414.42060852,0.0052164290100336075,43391.2734375,-0.09465944766998291,-1958156.25,0.0,0.0,0.0,0.0,-0.36718660543385007,-0.6862492971503091,-0.0009263934564015327,0.00037866651077491276,1.570258216190238e-11,5.8161843184875714e-11,-0.08315134344856584,-0.18604610703732657,-1.0197082146999152e-09,-3.793970015324128e-09,1.2353640407077848e-15,7.760448618848726e-15,0.6283185307179586,1.0000000000000007,1.4593204170673446,3.1835822261828306,0.0,0.0,0.0,0.0,0.0,0.0,0.0,0.0,0.0,0.0,0.6408849013323189,-0.38101543644720065,0.0,-0.0009175309020535108,1.6886785144123434e-11,-0.08692701866171194,-1.0969819027100495e-09,0.1927256239226727,0.0,-0.07450128546766839,0.0,1.397080979909573e-15,0.0,0.0,0.0,0.0,0.0,0.0,0.0,0.0,0.0,0.0,0.0,0.0,0.0,36.72000000000006,-0.38101543644720065,-0.05257064826049749,9.675415183024904e-10,-0.08692701866171194,-1.0969819027100495e-09,0.1927256239226727,0.0,-0.07450128546766839,0.0,8.004684378681988e-14,0.0,0.0,1.0200000000000007
-4458.784369798015,0.0,0.0,0.0,-401290.5932818213,0.0,-4458.784369798015,2479338.7561463322,43093.55,60.94689747964199,-5820229.790444551,0.0008799842717037768,-10005731.013044268,0.0048790182918310165,122233414.42060852,0.0052164290100336075,43391.2734375,-0.09465944766998291,-1958156.25,0.0,0.0,0.0,0.0,-0.36718660543385007,-0.6862492971503091,-0.0009263934564015327,0.00037866651077491276,1.570258216190238e-11,5.8161843184875714e-11,-0.08315134344856584,-0.18604610703732657,-1.0197082146999152e-09,-3.793970015324128e-09,1.2353640407077848e-15,7.760448618848726e-15,0.6283185307179586,1.0000000000000007,1.4593204170673446,3.1835822261828306,0.0,0.0,0.0,0.0,0.0,0.0,0.0,0.0,0.0,0.0,0.6597344572538578,-0.4021411726607456,0.0,-0.000899262095083716,1.874147376582269e-11,-0.09279694749248249,-1.2181145265319307e-09,0.18869788817822944,0.0,-0.07343582879923789,0.0,1.664941986533165e-15,0.0,0.0,0.0,0.0,0.0,0.0,0.0,0.0,0.0,0.0,0.0,0.0,0.0,37.800000000000075,-0.4021411726607456,-0.05152392272438906,1.0738073486367935e-09,-0.09279694749248249,-1.2181145265319307e-09,0.18869788817822944,0.0,-0.07343582879923789,0.0,9.539414896247751e-14,0.0,0.0,1.0500000000000007
-4493.048198604055,0.0,0.0,0.0,-404374.337874365,0.0,-4493.048198604055,2479338.7561463322,43093.55,60.94689747964199,-6012033.634856003,0.0009665082618455233,-9658228.735387065,0.005469443276524544,129790050.67665455,0.005789601244032383,48458.2109375,-0.09457187354564667,-1956378.75,0.0,0.0,0.0,0.0,-0.4021411726607456,-0.7117013213940748,-0.000899262095083716,0.0007112138430326425,1.874147376582269e-11,6.3385779096563e-11,-0.09279694749248249,-0.19981495681418507,-1.2181145265319307e-09,-4.142064934933074e-09,1.664941986533165e-15,9.451965386312335e-15,0.6283185307179586,1.0500000000000007,1.4227986384410334,2.5801501939154257,0.0,0.0,0.0,0.0,0.0,0.0,0.0,0.0,0.0,0.0,0.6785840131753967,-0.4237124254692825,0.0,-0.0008747620789301398,2.068975260345199e-11,-0.09891675136799852,-1.3455010285428926e-09,0.18324588023333083,0.0,-0.0715805270260676,0.0,1.9648267386485774e-15,0.0,0.0,0.0,0.0,0.0,0.0,0.0,0.0,0.0,0.0,0.0,0.0,0.0,38.88000000000008,-0.4237124254692825,-0.05012017520078681,1.1854355033476061e-09,-0.09891675136799852,-1.3455010285428926e-09,0.18324588023333083,0.0,-0.0715805270260676,0.0,1.1257627959901751e-13,0.0,0.0,1.0800000000000007
-4499.449306448818,0.0,0.0,0.0,-404950.4375803937,0.0,-4499.449306448818,2479338.7561463322,43093.55,60.94689747964199,-6196085.220102017,0.0010538074499818414,-9300104.037754476,0.00605199602432549,137158072.14766225,0.006353011354804039,53771.68359375,-0.09448091685771942,-1954593.0,0.0,0.0,0.0,0.0,-0.4383331729005995,-0.7357395501340629,-0.0008548274855590745,0.0010704464630056443,2.204032920721921e-11,6.85598349975466e-11,-0.1031367015965067,-0.21381528749567885,-1.4338925697906629e-09,-4.488829734788203e-09,2.183466497556589e-15,1.1317792915156758e-14,0.6283185307179586,1.1000000000000008,1.3847845408263946,2.4336671920566313,0.0,0.0,0.0,0.0,0.0,0.0,0.0,0.0,0.0,0.0,0.6974335690969357,-0.44571378867176825,0.0,-0.0008437494711876854,2.273107204409711e-11,-0.10528899240927161,-1.479126858726179e-09,0.17639730962157568,0.0,-0.06897661979695568,0.0,2.2986076349433635e-15,0.0,0.0,0.0,0.0,0.0,0.0,0.0,0.0,0.0,0.0,0.0,0.0,0.0,39.96000000000009,-0.44571378867176825,-0.04834328366544943,1.3023944919345776e-09,-0.10528899240927161,-1.479126858726179e-09,0.17639730962157568,0.0,-0.06897661979695568,0.0,1.3170051623880258e-13,0.0,0.0,1.1100000000000008
-4499.449306448818,0.0,0.0,0.0,-404950.4375803937,0.0,-4499.449306448818,2479338.7561463322,43093.55,60.94689747964199,-6196085.220102017,0.0010538074499818414,-9300104.037754476,0.00605199602432549,137158072.14766225,0.006353011354804039,53771.68359375,-0.09448091685771942,-1954593.0,0.0,0.0,0.0,0.0,-0.4383331729005995,-0.7357395501340629,-0.0008548274855590745,0.0010704464630056443,2.204032920721921e-11,6.85598349975466e-11,-0.1031367015965067,-0.21381528749567885,-1.4338925697906629e-09,-4.488829734788203e-09,2.183466497556589e-15,1.1317792915156758e-14,0.6283185307179586,1.1000000000000008,1.3847845408263946,2.4336671920566313,0.0,0.0,0.0,0.0,0.0,0.0,0.0,0.0,0.0,0.0,0.7162831250184746,-0.4681295913112277,0.0,-0.0008059546348898993,2.4864860739915313e-11,-0.11191630206536383,-1.61897710293532e-09,0.1682884036455678,0.0,-0.06579203924154214,0.0,2.6681322763165156e-15,0.0,0.0,0.0,0.0,0.0,0.0,0.0,0.0,0.0,0.0,0.0,0.0,0.0,41.0400000000001,-0.4681295913112277,-0.04617779905819844,1.4246515785776847e-09,-0.11191630206536383,-1.61897710293532e-09,0.1682884036455678,0.0,-0.06579203924154214,0.0,1.528727186155695e-13,0.0,0.0,1.1400000000000008
-4487.256700268581,0.0,0.0,0.0,-403853.1030241721,0.0,-4487.256700268581,2479338.7561463322,43093.55,60.94689747964199,-6372213.092957537,0.0011418239509470094,-8931968.370010745,0.006620481144636869,144329156.83378914,0.0069028642028570175,59324.0625,-0.0943867564201355,-1952807.25,0.0,0.0,0.0,0.0,-0.47569087774812485,-0.7583228699484912,-0.0007918039535796276,0.0014545144139666499,2.5596570488285958e-11,7.368065448086613e-11,-0.1141825416626567,-0.22805875758757563,-1.666974424365351e-09,-4.834208062317549e-09,2.7995654306205743e-15,1.3354232427445206e-14,0.6283185307179586,1.1500000000000008,1.3453179957541996,2.762570158031918,0.0,0.0,0.0,0.0,0.0,0.0,0.0,0.0,0.0,0.0,0.7351326809400135,-0.4909439078272198,0.0,-0.0007611169903138458,2.7090525694091756e-11,-0.11880129698220525,-1.7650364876634261e-09,0.15908921052591318,0.0,-0.06223150032261006,0.0,3.075219222026189e-15,0.0,0.0,0.0,0.0,0.0,0.0,0.0,0.0,0.0,0.0,0.0,0.0,0.0,42.12000000000011,-0.4909439078272198,-0.04360879126068293,1.5521727870621726e-09,-0.11880129698220525,-1.7650364876634261e-09,0.15908921052591318,0.0,-0.06223150032261006,0.0,1.7619708249960508e-13,0.0,0.0,1.1700000000000008
-4487.256700268581,0.0,0.0,0.0,-403853.1030241721,0.0,-4487.256700268581,2479338.7561463322,43093.55,60.94689747964199,-6372213.092957537,0.0011418239509470094,-8931968.370010745,0.006620481144636869,144329156.83378914,0.0069028642028570175,59324.0625,-0.0943867564201355,-1952807.25,0.0,0.0,0.0,0.0,-0.47569087774812485,-0.7583228699484912,-0.0007918039535796276,0.0014545144139666499,2.5596570488285958e-11,7.368065448086613e-11,-0.1141825416626567,-0.22805875758757563,-1.666974424365351e-09,-4.834208062317549e-09,2.7995654306205743e-15,1.3354232427445206e-14,0.6283185307179586,1.1500000000000008,1.3453179957541996,2.762570158031918,0.0,0.0,0.0,0.0,0.0,0.0,0.0,0.0,0.0,0.0,0.7539822368615524,-0.5141405683322452,0.0,-0.0007089820528521354,2.9407452496722347e-11,-0.12594649101096653,-1.9172893946035257e-09,0.1489299962483944,0.0,-0.05844760413378469,0.0,3.5216541215973163e-15,0.0,0.0,0.0,0.0,0.0,0.0,0.0,0.0,0.0,0.0,0.0,0.0,0.0,43.20000000000012,-0.5141405683322452,-0.04062167937894842,1.6849229142936457e-09,-0.12594649101096653,-1.9172893946035257e-09,0.1489299962483944,0.0,-0.05844760413378469,0.0,2.0177591807237744e-13,0.0,0.0,1.2000000000000008
-4400.70785173945,0.0,0.0,0.0,-396063.70665655064,0.0,-4400.70785173945,2479338.7561463322,43093.55,60.94689747964199,-6540265.551258967,0.0012304802820799778,-8554443.503703006,0.007168853422626853,151295298.99765128,0.007435961626470089,65102.21484375,-0.09429022669792175,-1951030.125,0.0,0.0,0.0,0.0,-0.5141405683322452,-0.7794127841114656,-0.0007089820528521354,0.001862241636536511,2.9407452496722347e-11,7.874491534649191e-11,-0.12594649101096653,-0.24253648536827477,-1.9172893946035257e-09,-5.178145612105448e-09,3.5216541215973163e-15,1.555650403701342e-14,0.6283185307179586,1.2000000000000008,1.3044403981717194,3.6855939719186463,0.0,0.0,0.0,0.0,0.0,0.0,0.0,0.0,0.0,0.0,0.7728317927830913,-0.5377031689921788,0.0,-0.000649300008610291,3.181500559147866e-11,-0.13335424879313054,-2.0757198763957733e-09,0.137858456564238,0.0,-0.05448881917009968,0.0,4.009186366051415e-15,0.0,0.0,0.0,0.0,0.0,0.0,0.0,0.0,0.0,0.0,0.0,0.0,0.0,44.28000000000013,-0.5377031689921788,-0.03720215013117768,1.8228655455768425e-09,-0.13335424879313054,-2.0757198763957733e-09,0.137858456564238,0.0,-0.05448881917009968,0.0,2.2970945805613764e-13,0.0,0.0,1.2300000000000009
-4280.1245654919785,0.0,0.0,0.0,-385211.21089427784,0.0,-4280.1245654919785,2479338.7561463322,43093.55,60.94689747964199,-6700108.7866616165,0.0013196826432652533,-8168160.99704868,0.007691451581194997,158048822.74371976,0.007949789054691792,71088.7109375,-0.09419210255146027,-1949270.0,0.0,0.0,0.0,0.0,-0.5536066673824824,-0.7989734610530862,-0.0006051982662149609,0.002292841323016168,3.3470065591938486e-11,8.374935887174835e-11,-0.13843972849655461,-0.25722691769848316,-2.184764164606716e-09,-5.520591856832431e-09,4.3578861374113744e-15,1.7918966053680935e-14,0.6283185307179586,1.2500000000000009,1.2621946230251486,4.564852267932081,0.0,0.0,0.0,0.0,0.0,0.0,0.0,0.0,0.0,0.0,0.7916813487046302,-0.5616150825057948,0.0,-0.0005818267442576344,3.431252848906477e-11,-0.14102680250024888,-2.2403116687280414e-09,0.12583998210983524,0.0,-0.05029923631627561,0.0,4.539526499007422e-15,0.0,0.0,0.0,0.0,0.0,0.0,0.0,0.0,0.0,0.0,0.0,0.0,0.0,45.360000000000134,-0.5616150825057948,-0.033336216853799956,1.9659630668458105e-09,-0.14102680250024888,-2.2403116687280414e-09,0.12583998210983524,0.0,-0.05029923631627561,0.0,2.6009570938092377e-13,0.0,0.0,1.260000000000001
-4280.1245654919785,0.0,0.0,0.0,-385211.21089427784,0.0,-4280.1245654919785,2479338.7561463322,43093.55,60.94689747964199,-6700108.7866616165,0.0013196826432652533,-8168160.99704868,0.007691451581194997,158048822.74371976,0.007949789054691792,71088.7109375,-0.09419210255146027,-1949270.0,0.0,0.0,0.0,0.0,-0.5536066673824824,-0.7989734610530862,-0.0006051982662149609,0.002292841323016168,3.3470065591938486e-11,8.374935887174835e-11,-0.13843972849655461,-0.25722691769848316,-2.184764164606716e-09,-5.520591856832431e-09,4.3578861374113744e-15,1.7918966053680935e-14,0.6283185307179586,1.2500000000000009,1.2621946230251486,4.564852267932081,0.0,0.0,0.0,0.0,0.0,0.0,0.0,0.0,0.0,0.0,0.8105309046261692,-0.5858594687065394,0.0,-0.0005063260890704329,3.689934394733417e-11,-0.14896630582126766,-2.411048200158981e-09,0.11279336963730914,0.0,-0.04576127719818595,0.0,5.114343291864835e-15,0.0,0.0,0.0,0.0,0.0,0.0,0.0,0.0,0.0,0.0,0.0,0.0,0.0,46.44000000000015,-0.5858594687065394,-0.029010347961100805,2.1141766749838477e-09,-0.14896630582126766,-2.411048200158981e-09,0.11279336963730914,0.0,-0.04576127719818595,0.0,2.930302856048992e-13,0.0,0.0,1.290000000000001
-4357.6850795213595,0.0,0.0,0.0,-392191.6571569221,0.0,-4357.6850795213595,2479338.7561463322,43093.55,60.94689747964199,-6851622.563799885,0.001409331665180255,-7773763.889056575,0.008182741235941648,164582506.13834643,0.008442258462309837,77266.9921875,-0.09409292042255402,-1947535.25,0.0,0.0,0.0,0.0,-0.5940118736244806,-0.8169717804508265,-0.00047933606968420867,0.0027451266403352888,3.7781338541216696e-11,8.869077847595431e-11,-0.15167249984745795,-0.2721170107223568,-2.4693229678243703e-09,-5.861499173970402e-09,5.3161147371867945e-15,2.043525490632419e-14,0.6283185307179586,1.300000000000001,1.2186249802897184,4.045398476500093,0.0,0.0,0.0,0.0,0.0,0.0,0.0,0.0,0.0,0.0,0.8293804605477081,-0.6104192852822597,0.0,-0.00042257254190764074,3.957475417519217e-11,-0.15717490311958807,-2.5879126026915163e-09,0.09864169682047937,0.0,-0.040756979157300324,0.0,5.735261518636597e-15,0.0,0.0,0.0,0.0,0.0,0.0,0.0,0.0,0.0,0.0,0.0,0.0,0.0,47.52000000000016,-0.6104192852822597,-0.024211623189422923,2.267466389506245e-09,-0.15717490311958807,-2.5879126026915163e-09,0.09864169682047937,0.0,-0.040756979157300324,0.0,3.286062794216682e-13,0.0,0.0,1.320000000000001
-4357.6850795213595,0.0,0.0,0.0,-392191.6571569221,0.0,-4357.6850795213595,2479338.7561463322,43093.55,60.94689747964199,-6851622.563799885,0.001409331665180255,-7773763.889056575,0.008182741235941648,164582506.13834643,0.008442258462309837,77266.9921875,-0.09409292042255402,-1947535.25,0.0,0.0,0.0,0.0,-0.5940118736244806,-0.8169717804508265,-0.00047933606968420867,0.0027451266403352888,3.7781338541216696e-11,8.869077847595431e-11,-0.15167249984745795,-0.2721170107223568,-2.4693229678243703e-09,-5.861499173970402e-09,5.3161147371867945e-15,2.043525490632419e-14,0.6283185307179586,1.300000000000001,1.2186249802897184,4.045398476500093,0.0,0.0,0.0,0.0,0.0,0.0,0.0,0.0,0.0,0.0,0.848230016469247,-0.6352772985730336,0.0,-0.00033035082157918016,4.2338041014657246e-11,-0.16565473740293266,-2.7708877210574717e-09,0.08335431475503591,0.0,-0.0352193045480096,0.0,6.4038597525790466e-15,0.0,0.0,0.0,0.0,0.0,0.0,0.0,0.0,0.0,0.0,0.0,0.0,0.0,48.600000000000165,-0.6352772985730336,-0.018927707835166306,2.425791062991638e-09,-0.16565473740293266,-2.7708877210574717e-09,0.08335431475503591,0.0,-0.0352193045480096,0.0,3.66914136416471e-13,0.0,0.0,1.350000000000001
-4263.459934190713,0.0,0.0,0.0,-383711.394077164,0.0,-4263.459934190713,2479338.7561463322,43093.55,60.94689747964199,-6994698.828823104,0.001499331556463907,-7371904.746888077,0.008637280203402042,170889592.89959937,0.00891148578375578,83622.921875,-0.0939931869506836,-1945833.375,0.0,0.0,0.0,0.0,-0.6352772985730336,-0.8333773810088188,-0.00033035082157918016,0.0032174929831238577,4.2338041014657246e-11,9.356601678038476e-11,-0.16565473740293266,-0.28720574713936575,-2.7708877210574717e-09,-6.20082249551764e-09,6.4038597525790466e-15,2.309841669093755e-14,0.6283185307179586,1.350000000000001,1.1737771684946596,4.732699034722938,0.0,0.0,0.0,0.0,0.0,0.0,0.0,0.0,0.0,0.0,0.8670795723907859,-0.6604160944532591,0.0,-0.0002294574148475728,4.518846611602813e-11,-0.1744079843699476,-2.9599561210385007e-09,0.06696636558050945,0.0,-0.029155984120720086,0.0,7.121668421820593e-15,0.0,0.0,0.0,0.0,0.0,0.0,0.0,0.0,0.0,0.0,0.0,0.0,0.0,49.68000000000018,-0.6604160944532591,-0.013146941448748393,2.589108391118339e-09,-0.1744079843699476,-2.9599561210385007e-09,0.06696636558050945,0.0,-0.029155984120720086,0.0,4.0804154366191367e-13,0.0,0.0,1.380000000000001
-4407.0868300565835,0.0,0.0,0.0,-396637.81470509263,0.0,-4407.0868300565835,2479338.7561463322,43093.55,60.94689747964199,-7129243.066006509,0.0015895913369395954,-6963243.155384116,0.009049992397194728,176963782.31790322,0.009355918504297733,90143.625,-0.09389330446720123,-1944171.75,0.0,0.0,0.0,0.0,-0.6773226053991217,-0.8481626957156746,-0.00015728290383248275,0.003708114754407528,4.7136785977294833e-11,9.837196257166468e-11,-0.18039647499432912,-0.30249798899527536,-3.089378144883931e-09,-6.538518982345757e-09,7.628279833655678e-15,2.590097055567844e-14,0.6283185307179586,1.400000000000001,1.1276982267917672,3.7454209099878977,0.0,0.0,0.0,0.0,0.0,0.0,0.0,0.0,0.0,0.0,0.8859291283123248,-0.6858180892851077,0.0,-0.0001197014741841583,4.812527111373547e-11,-0.18343686284833519,-3.1551000972938696e-09,0.04957078796970843,0.0,-0.022640108496290823,0.0,7.89016793935415e-15,0.0,0.0,0.0,0.0,0.0,0.0,0.0,0.0,0.0,0.0,0.0,0.0,0.0,50.76000000000018,-0.6858180892851077,-0.00685838927224645,2.757374922739897e-09,-0.18343686284833519,-3.1551000972938696e-09,0.04957078796970843,0.0,-0.022640108496290823,0.0,4.5207332257442645e-13,0.0,0.0,1.410000000000001
-4407.0868300565835,0.0,0.0,0.0,-396637.81470509263,0.0,-4407.0868300565835,2479338.7561463322,43093.55,60.94689747964199,-7129243.066006509,0.0015895913369395954,-6963243.155384116,0.009049992397194728,176963782.31790322,0.009355918504297733,90143.625,-0.09389330446720123,-1944171.75,0.0,0.0,0.0,0.0,-0.6773226053991217,-0.8481626957156746,-0.00015728290383248275,0.003708114754407528,4.7136785977294833e-11,9.837196257166468e-11,-0.18039647499432912,-0.30249798899527536,-3.089378144883931e-09,-6.538518982345757e-09,7.628279833655678e-15,2.590097055567844e-14,0.6283185307179586,1.400000000000001,1.1276982267917672,3.7454209099878977,0.0,0.0,0.0,0.0,0.0,0.0,0.0,0.0,0.0,0.0,0.9047786842338638,-0.711465540925878,0.0,-9.010333313938621e-07,5.114767781954516e-11,-0.19274355202748092,-3.3563016824573473e-09,0.03128915085896638,0.0,-0.015775740545157475,0.0,8.710787150651478e-15,0.0,0.0,0.0,0.0,0.0,0.0,0.0,0.0,0.0,0.0,0.0,0.0,0.0,51.840000000000195,-0.711465540925878,-5.162540708948076e-05,2.9305460709548308e-09,-0.19274355202748092,-3.3563016824573473e-09,0.03128915085896638,0.0,-0.015775740545157475,0.0,4.990913399691177e-13,0.0,0.0,1.440000000000001
-4406.038655490922,0.0,0.0,0.0,-396543.4789941831,0.0,-4406.038655490922,2479338.7561463322,43093.55,60.94689747964199,-7255176.752320015,0.0016800209745932064,-6548441.877065999,0.009415827618795447,182799153.49420333,0.009774342179298401,96813.953125,-0.09379349648952484,-1942556.75,0.0,0.0,0.0,0.0,-0.720066149432508,-0.8613029813518548,4.0739157452003784e-05,0.004215441405404489,5.2174031974808674e-11,1.0310554941614843e-10,-0.1959078866932257,-0.3179912150323983,-3.4247118696310705e-09,-6.874547792744383e-09,8.996148410638408e-15,2.8835008466678206e-14,0.6283185307179586,1.450000000000001,1.0804364856178343,3.783207911721779,0.0,0.0,0.0,0.0,0.0,0.0,0.0,0.0,0.0,0.0,0.9236282401554027,-0.737340559751693,0.0,0.00012711709003482475,5.425488830273378e-11,-0.20233017385087593,-3.5635426480999114e-09,0.012239067456285465,0.0,-0.008658591557921848,0.0,9.58490213454806e-15,0.0,0.0,0.0,0.0,0.0,0.0,0.0,0.0,0.0,0.0,0.0,0.0,0.0,52.92000000000021,-0.737340559751693,0.007283272762979953,3.1085761177003437e-09,-0.20233017385087593,-3.5635426480999114e-09,0.012239067456285465,0.0,-0.008658591557921848,0.0,5.491744393555378e-13,0.0,0.0,1.470000000000001
-4406.038655490922,0.0,0.0,0.0,-396543.4789941831,0.0,-4406.038655490922,2479338.7561463322,43093.55,60.94689747964199,-7255176.752320015,0.0016800209745932064,-6548441.877065999,0.009415827618795447,182799153.49420333,0.009774342179298401,96813.953125,-0.09379349648952484,-1942556.75,0.0,0.0,0.0,0.0,-0.720066149432508,-0.8613029813518548,4.0739157452003784e-05,0.004215441405404489,5.2174031974808674e-11,1.0310554941614843e-10,-0.1959078866932257,-0.3179912150323983,-3.4247118696310705e-09,-6.874547792744383e-09,8.996148410638408e-15,2.8835008466678206e-14,0.6283185307179586,1.450000000000001,1.0804364856178343,3.783207911721779,0.0,0.0,0.0,0.0,0.0,0.0,0.0,0.0,0.0,0.0,0.9424777960769416,-0.7634251197354323,0.0,0.00026451817172994417,5.744608501315862e-11,-0.2121987653698317,-3.776804508332581e-09,-0.00748988876841831,0.0,-0.0013470294319569442,0.0,1.0513835256853524e-14,0.0,0.0,0.0,0.0,0.0,0.0,0.0,0.0,0.0,0.0,0.0,0.0,0.0,54.000000000000206,-0.7634251197354323,0.015155774844642526,3.2914182208037194e-09,-0.2121987653698317,-3.776804508332581e-09,-0.00748988876841831,0.0,-0.0013470294319569442,0.0,6.023983867135507e-13,0.0,0.0,1.500000000000001
